Site Code,Latitude,Longitude,PhysicalAddressCounty,Call Group,Owner,Cluster_ID
A14,32.4798,-84.99174,Muscogee,FO-GA-SW-COLUMBUS,GPC,1
A17,30.82553,-83.28925,Lowndes,FO-GA-SW-VALDOSTA,GPC,2
AAB,34.3071972,-86.4696917,,FO-AL-ALBERTVILLE,SOLINC,1
AAO,32.102944,-84.208918,Sumter,FO-GA-SW-AMERICUS,GPC,3
AAV,32.562281,-85.508903,Lee,FO-AL-PHENIX CITY,APC,1
AAZ,32.562281,-85.508903,Lee,FO-AL-PHENIX CITY,APC,1
ABB,31.62337,-85.21599,Henry,FO-AL-EUFAULA,APC,4
ABE,32.080184,-81.089307,Chatham,FO-GA-SE-SAVANNAH 1,GPC,5
ABN,33.645969,-85.461461,Cleburne,FO-AL-ANNISTON,APC,1
ABO,33.47139,-81.97833,Richmond,FO-GA-SE-AUGUSTA 2,GPC,1
ABP,30.355333,-88.132416,Mobile,FO-AL-MOBILE SOUTHWEST,APC,6
ABR,31.6003111,-83.0246528,AMBROSE,FO-GA-SE-WAYCROSS,GPC,7
ABV,31.9893,-83.3123,Wilcox,FO-GA-SW-PERRY,GPC,1
ACH,31.059307,-87.474051,Escambia,FO-AL-SOUTH-MOBILE BLT HUB,APC,6
ACQ,33.656672,-85.835613,Calhoun,FO-AL-ANNISTON,APC,1
ACT,34.076708,-84.64854,Cobb,FO-GA-NW-COBB,GPC,1
ACW,33.283083,-85.836222,Clay,FO-AL-ASHLAND,APC,1
ADA,34.369596,-84.947727,Bartow,FO-GA-NW-BARTOW/CHEROKEE & NORTH,GPC,1
ADB,35.107425,-118.958067,Kern,FO-SPC-PLANT SUPPORT 2 BLT HUB,SPC,8
ADC,33.981335,-83.390304,CLARKE,FO-GA-NE-ATHENS WEST,GPC,1
ADE,31.171918,-83.3658,Cook,FO-GA-SW-VALDOSTA,GPC,9
ADM,33.607516,-86.951272,Jefferson,FO-AL-BIRMINGHAM NORTHWEST,APC,1
ADU,33.656446,-85.827227,Calhoun,FO-AL-ANNISTON,APC,1
AE1,36.6777802,-78.3747589,Mecklenburg,FO-GA-SE-NATIONAL,GPC,10
AE2,36.6827668,-78.3762832,Mecklenburg,FO-GA-SE-NATIONAL,GPC,10
AEA,33.959835,-83.378849,CLARKE,FO-GA-NE-ATHENS EAST,GPC,1
AER,34.636533,-83.610217,AERIAL,FO-GA-NE-CORNELIA,GPC,1
AFB,32.37168,-86.34107,,FO-AL-MONTGOMERY WEST,APC,1
AFD,31.19,-85.23417,Houston,FO-AL-DOTHAN EAST,APC,11
AFO,31.606907,-84.150435,Dougherty,FO-GA-SW-BAINBRIDGE,GPC,12
AGE,33.65722,-85.83444,Calhoun,FO-AL-ANNISTON,APC,1
AGL,33.780909,-84.387112,Fulton,FO-GASCORP-GAS CORP HQ BLT HUB,SOGAS,1
AHN,31.741613,-83.653089,Turner,FO-GA-SE-WAYCROSS,GPC,13
AHS,34.786167,-86.975966,Limestone,FO-AL-BIRMINGHAM NORTH,SOLINC,1
AIP,33.805039,-84.4945,Fulton,FO-GA-NW-COBB,GPC,1
AIR,30.673842,-88.125855,Mobile,FO-AL-MOBILE SOUTHWEST,APC,6
AKS,33.134756,-115.467808,IMPERIAL,FO-SPC-PLANT SUPPORT 2 BLT HUB,SPC,14
ALA,31.395259,-83.240118,Berrien,FO-GA-SE-WAYCROSS,GPC,15
ALB,31.605029,-84.148434,Dougherty,FO-GA-SW-BAINBRIDGE,GPC,12
ALE,32.948344,-85.977196,Tallapoosa,FO-AL-ASHLAND,APC,1
ALH,33.083618,-115.466767,IMPERIAL,FO-SPC-PLANT SUPPORT 2 BLT HUB,SPC,14
ALI,33.099264,-88.101836,Pickens,FO-AL-FAYETTE,APC,1
ALN,33.32893,-86.19294,,FO-AL-ASHLAND,APC,1
ALO,32.165608,-82.741031,Wheeler,FO-GA-SE-BAXLEY,GPC,16
ALP,34.064655,-84.27276,Fulton,FO-GA-NE-CUMMING,GPC,1
ALR,33.242012,-86.814651,Shelby,FO-AL-BIRMINGHAM SOUTHWEST,APC,1
ALT,33.5132,-86.7586,Jefferson,FO-AL-BIRMINGHAM DOWNTOWN SOUTH,APC,1
ALV,34.2827,-86.2198,Marshall,FO-AL-ALBERTVILLE,SOLINC,1
ALX,32.937457,-85.969639,Tallapoosa,FO-AL-ASHLAND,APC,1
ALY,31.54734,-84.31447,Dougherty,FO-GA-SW-BAINBRIDGE,GPC,12
AMB,33.981526,-83.389417,Clarke,FO-GA-NE-ATHENS EAST,GPC,1
AMC,32.057113,-84.174698,Sumter,FO-GA-SW-AMERICUS,GPC,3
AMD,33.37389,-84.29611,Henry,FO-GA-NW-CLAYTON/HENRY/SPALDING/BUTTS,GPC,1
AMR,32.102944,-84.208918,Sumter,FO-GA-SW-AMERICUS,GPC,3
AMS,34.369596,-84.947727,Bartow,FO-GA-NW-BARTOW/CHEROKEE & NORTH,GPC,1
AMT,34.73072,-86.5876,Madison,FO-AL-BIRMINGHAM NORTH,SOLINC,1
AMW,31.432998,-84.728714,Early,FO-GA-SW-BAINBRIDGE,GPC,17
AN1,41.036937,-88.910078,,FO-GA-SE-ILLINOIS-SOUTH,SOGAS,18
ANA,33.685102,-85.972976,Calhoun,FO-AL-ANNISTON,APC,1
ANC,41.120867,-88.835352,LaSalle,FO-SOGAS-IL REGIONS BLT HUB,SOGAS,18
AND,31.30139,-86.51556,Covington,FO-AL-DOTHAN WEST,APC,19
ANN,33.6448,-85.8474,Calhoun,FO-AL-ANNISTON,APC,1
ANO,41.025073,-74.757928,Sussex,FO*-SJI Contacts,SOGAS,20
ANR,31.1103278,-82.5629583,MANOR,FO-GA-SE-WAYCROSS,GPC,21
ANS,33.6567,-85.8261,Calhoun,FO-AL-ANNISTON,APC,1
ANW,33.655754,-85.835463,Calhoun,FO-AL-ANNISTON,APC,1
AOD,31.178032,-85.257833,Houston,FO-AL-DOTHAN EAST,APC,11
AON,33.6551389,-82.6071944,AONIA,FO-GA-SE-AUGUSTA 1,GPC,22
APL,31.57434,-82.258587,Appling,FO-GA-SE-BAXLEY,GPC,23
APP,33.53731,-82.30922,Columbia,FO-GA-SE-AUGUSTA 1,GPC,1
APS,33.521424,-86.815596,Jefferson,FO-AL-BIRMINGHAM DOWNTOWN NORTH,APC,1
APW,38.893738,-77.020512,District of Columbia,FO-GA-SE-NATIONAL,SCS,24
APX,36.393133,-114.964864,Clark,FO-SPC-PLANT SUPPORT 2 BLT HUB,SPC,25
ARA,33.518603,-86.812287,Jefferson,FO-APCCORP-APC CORP HQ BLT HUB,APC,1
ARC,33.41435,-86.67794,Shelby,FO-AL-BIRMINGHAM NORTHEAST,APC,1
ARD,33.9196111,-83.2515889,,FO-GA-NE-ATHENS EAST,GPC,1
ARE,33.71431,-84.306446,,FO-GA-NE-METRO SOUTHEAST,SOGAS,1
ARF,33.479602,-81.968266,Richmond,FO-GA-SE-AUGUSTA 2,GPC,1
ARG,31.452704,-84.738974,Calhoun,FO-GA-SW-BAINBRIDGE,GPC,17
ARH,34.390045,-85.177367,Floyd,FO-GA-NW-FLOYD & NORTH,GPC,1
ARI,31.5705,-85.7524,Dale,FO-AL-EUFAULA,APC,11
ARM,32.375071,-86.303819,Montgomery,FO-AL-MONTGOMERY EAST,APC,1
ARN,31.6834722,-84.3079722,,FO-GA-SW-BAINBRIDGE,GPC,12
ARR,34.1104222,-86.1838389,AURORA,FO-AL-ALBERTVILLE,APC,1
ART,33.91694,-84.54056,Cobb,FO-GA-NW-COBB,GPC,1
ARW,32.928775,-83.735466,Bibb,FO-GA-SW-MACON-WEST,GPC,1
ASA,34.3271389,-83.3634722,ASHLAND (GA),FO-GA-NE-GAINESVILLE,GPC,1
ASB,32.980975,-86.915592,Bibb,FO-AL-BIRMINGHAM SOUTH,APC,1
ASC,33.776302,-84.412476,Fulton,FO-GA-NW-METRO NORTHWEST,GPC,1
ASD,33.2605,-85.8423,Clay,FO-AL-ASHLAND,APC,1
ASF,33.800211,-84.628496,Douglas,FO-GA-NW-COBB,GPC,1
ASL,33.283591,-85.83406,Clay,FO-AL-ASHLAND,APC,1
ASP,33.752262,-84.392491,Fulton,FO-GA-NW-METRO NORTHWEST,GPC,1
AST,33.283591,-85.83406,Clay,FO-AL-ASHLAND,APC,1
ASV,33.768858,-86.280136,St. Clair,FO-AL-ALBERTVILLE,APC,1
ASW,33.659139,-84.374766,Fulton,FO-GA-NE-METRO SOUTHEAST,GPC,1
ATA,33.770487,-84.405656,Fulton,FO-GA-NW-METRO NORTHWEST,SOGAS,1
ATC,33.980039,-83.390942,CLARKE,FO-GA-NE-ATHENS EAST,GPC,1
ATE,33.981103,-83.399924,Clarke,FO-GA-NE-ATHENS EAST,SOGAS,1
ATF,33.967232,-83.398826,Clarke,FO-GA-NE-ATHENS EAST,GPC,1
ATL,34.0435556,-86.1245833,,FO-AL-ALBERTVILLE,APC,1
ATM,31.022442,-87.489678,Escambia,FO-AL-SOUTH-MOBILE BLT HUB,APC,6
ATN,34.015207,-83.484773,Jackson,FO-GA-NE-GAINESVILLE,GPC,1
ATO,34.233191,-85.235013,Floyd,FO-GA-NW-FLOYD & NORTH,GPC,1
ATP,32.554,-85.535997,Lee,FO-AL-PHENIX CITY,APC,1
ATR,31.022885,-87.489531,Escambia,FO-AL-MOBILE NORTHEAST,APC,6
ATT,34.0228,-86.0881,Etowah,FO-AL-GADSDEN,APC,1
AUA,32.41361,-86.70139,Autauga,FO-AL-MONTGOMERY WEST,APC,1
AUB,32.574212,-85.498159,Lee,FO-AL-PHENIX CITY,APC,1
AUC,32.602253,-85.510089,Lee,FO-AL-PHENIX CITY,APC,1
AUF,33.452789,-82.067903,Richmond,FO-GA-SE-AUGUSTA 2,GPC,1
AUG,33.479155,-81.984151,Richmond,FO-GA-SE-AUGUSTA 2,GPC,1
AUN,32.62209,-85.50139,Lee,FO-AL-PHENIX CITY,APC,1
AUR,32.6081,-85.47624,Lee,FO-AL-PHENIX CITY,APC,1
AUS,33.800012,-84.627584,Douglas,FO-GA-NW-COBB,GPC,1
AUU,32.5849,-85.4934,Lee,FO-AL-PHENIX CITY,APC,1
AUW,33.487785,-82.130685,Columbia,FO-GA-SE-AUGUSTA 1,SOGAS,1
AVD,33.530614,-86.781642,Jefferson,FO-AL-BIRMINGHAM DOWNTOWN NORTH,APC,1
AVE,31.2635306,-88.7339306,,FO-MS-O-CENTRAL,MPC,26
AVL,33.129306,-88.154131,Pickens,FO-AL-FAYETTE,APC,1
AVO,33.1509278,-84.615725,ALVATON,FO-GA-SW-COLUMBUS,GPC,1
AW1,36.7384625,-119.7868358,Fresno,FO-GA-SE-NATIONAL,APC,27
AW2,47.240076,-119.879565,Grant,FO-GA-SE-NATIONAL,APC,28
AWH,33.513651,-86.820059,,FO-AL-BIRMINGHAM DOWNTOWN NORTH,APC,1
B67,31.001631,-88.019795,Mobile,FO-AL-MOBILE BARRY,APC,6
BAA,41.864955,-88.28374,Kane,FO-SOGAS-IL REGIONS BLT HUB,SOGAS,29
BAB,31.27079,-86.33421,Covington,FO-AL-DOTHAN WEST,APC,19
BAE,31.934035,-85.206088,Barbour,FO-AL-EUFAULA,APC,1
BAI,30.913971,-84.603277,Decatur,FO-GA-SW-BAINBRIDGE,GPC,30
BAL,31.78347,-82.364136,Appling,FO-GA-SE-BAXLEY,GPC,16
BAN,33.067885,-84.135312,Lamar,FO-GA-SW-MACON-WEST,GPC,1
BAP,33.5583,-86.7709,Jefferson,FO-AL-BIRMINGHAM NORTH,SCS,1
BAR,32.666818,-85.082159,Harris,FO-GA-SW-COLUMBUS,GPC,1
BAS,32.0274889,-89.2819333,,FO-MS-O-NORTH CENTRAL,MPC,6
BAT,33.5695,-86.7605,Jefferson,FO-AL-BIRMINGHAM DOWNTOWN NORTH,APC,1
BAX,31.783309,-82.340394,Appling,FO-GA-SE-BAXLEY,GPC,16
BAY,30.879226,-87.775652,Baldwin,FO-AL-MOBILE SOUTHEAST,APC,6
BCA,32.377861,-86.296199,Montgomery,FO-AL-MONTGOMERY EAST,APC,1
BCC,33.24376,-81.36484,Barnwell,FO-GA-SE-AUGUSTA 1,SOGAS,31
BCK,31.18723,-87.70483,Baldwin,FO-AL-MOBILE NORTHEAST,APC,32
BCS,32.0786,-81.09051,Chatham,FO-GA-SE-SAVANNAH 1,GPC,5
BCT,32.041161,-81.144223,Chatham,FO-GA-SE-SAVANNAH 1,GPC,5
BDH,33.515445,-86.820027,Jefferson,FO-AL-BIRMINGHAM DOWNTOWN NORTH,APC,1
BDO,31.202997,-81.494753,Glynn,FO-GA-SE-HINESVILLE-BRUNSWICK,GPC,33
BDR,35.96821,-114.90605,Clark,FO-SPC-PLANT SUPPORT 2 BLT HUB,SPC,34
BDS,33.5148,-86.81838,Jefferson,FO-AL-BIRMINGHAM DOWNTOWN NORTH,APC,1
BE6,31.00573,-88.01083,Mobile,FO-AL-MOBILE BARRY,APC,6
BE7,31.005794,-88.010451,Mobile,FO-AL-MOBILE BARRY,APC,6
BEC,31.73962,-87.18712,Monroe,FO-AL-MOBILE NORTHEAST,APC,35
BEE,38.10997,-80.56607,,FO-SPC-PLANT SUPPORT 2 BLT HUB,SPC,36
BEK,33.6637556,-87.9144056,BELK,FO-AL-FAYETTE,APC,1
BEL,33.753975,-84.266752,Dekalb,FO-GA-NE-METRO SOUTHEAST,GPC,1
BEM,30.856722,-83.207233,Lowndes,FO-GA-SW-VALDOSTA,GPC,2
BEN,31.076631,-83.620767,Colquitt,FO-GA-SW-VALDOSTA,GPC,37
BER,33.682783,-87.538492,Fayette,FO-AL-MILLER SP,APC,1
BES,33.38026,-86.94415,Jefferson,FO-AL-BIRMINGHAM SOUTHWEST,APC,1
BET,39.37881,-77.41575,Frederick,FO-GA-SE-NATIONAL,SOGAS,38
BEV,41.80963,-88.27389,Kane,FO-GA-SE-ILLINOIS-NORTH,SOGAS,29
BEW,31.1056,-87.035,Escambia,FO-AL-MOBILE NORTHEAST,APC,6
BFG,33.5647,-86.852162,Jefferson,FO-AL-BIRMINGHAM NORTHWEST,APC,1
BFO,32.666818,-85.082159,Harris,FO-GA-SW-COLUMBUS,GPC,1
BGA,34.307122,-84.419714,Cherokee,FO-GA-NW-BARTOW/CHEROKEE & NORTH,GPC,1
BGG,32.0526417,-86.8103806,BRAGGS,FO-AL-MONTGOMERY WEST,APC,39
BGP,34.874414,-85.461799,Dade,FO-GA-NW-FLOYD & NORTH,GPC,1
BGT,33.9473306,-83.4834,,FO-GA-NE-ATHENS EAST,GPC,1
BH1,33.518603,-86.812287,Jefferson,FO-AL-BIRMINGHAM DOWNTOWN NORTH,APC,1
BH2,33.518603,-86.812287,Jefferson,FO-AL-BIRMINGHAM DOWNTOWN NORTH,APC,1
BH3,33.518603,-86.812287,Jefferson,FO-AL-BIRMINGHAM DOWNTOWN NORTH,APC,1
BH4,33.518603,-86.812287,Jefferson,FO-AL-BIRMINGHAM DOWNTOWN NORTH,APC,1
BIG,32.655183,-86.766628,Autauga,FO-AL-MONTGOMERY WEST,APC,1
BIL,30.39738,-88.88493,Harrison,FO-MS-O-SOUTH,MPC,6
BJC,33.524832,-86.811851,Jefferson,FO-AL-BIRMINGHAM DOWNTOWN NORTH,APC,1
BKE,33.08417,-82.04389,Burke,FO-GA-SE-AUGUSTA 2,GPC,1
BKL,33.9828778,-84.2088083,BERKELEY LAKE,FO-GA-NE-CUMMING,GPC,1
BKM,30.98694,-86.71889,Okaloosa,FO-AL-DOTHAN WEST,SOLINC,40
BKS,33.62515,-87.669878,BANKSTON,FO-AL-FAYETTE,APC,1
BKT,31.5937,-88.5432,,FO-MS-O-NORTH CENTRAL,MPC,6
BKW,35.618738,-119.854107,KERN,FO-SPC-PLANT SUPPORT 2 BLT HUB,SPC,41
BKY,31.0732944,-89.2251333,Forrest,FO-MS-O-CENTRAL,MPC,6
BLA,31.365153,-84.926687,Early,FO-GA-SW-BAINBRIDGE,GPC,17
BLC,31.338178,-82.208091,Pierce,FO-GA-SE-WAYCROSS,GPC,42
BLD,31.508553,-81.396471,McIntosh,FO-GA-SE-HINESVILLE-BRUNSWICK,GPC,43
BLE,32.58889,-85.19528,Lee,FO-AL-PHENIX CITY,APC,1
BLF,33.422469,-86.846001,Jefferson,FO-AL-BIRMINGHAM SOUTHWEST,APC,1
BLG,34.3413806,-84.3869389,,FO-GA-NW-BARTOW/CHEROKEE & NORTH,GPC,1
BLK,34.01979,-84.516082,Cobb,FO-GA-NW-COBB,GPC,1
BLL,32.4625583,-88.1180028,,FO-AL-DEMOPOLIS,APC,6
BLM,40.49517,-89.020187,McLean,FO-SOGAS-IL REGIONS BLT HUB,SOGAS,44
BLT,30.4214,-88.2453,Mobile,FO-AL-MOBILE SOUTHWEST,APC,6
BLU,32.7459333,-82.3937028,BLUNDALE,FO-GA-SE-BAXLEY,GPC,45
BLX,30.409417,-88.8935,,FO-MS-O-SOUTH,MPC,6
BLY,31.402336,-84.9592,Early,FO-GA-SW-BAINBRIDGE,GPC,17
BMA,40.668491,-75.374203,NORTHAMPTON,FO-GA-SE-NATIONAL,SCS,46
BME,33.682817,-85.164751,Carroll,FO-GA-NW-CARROLL/HEARD/DOUGLAS,GPC,1
BMH,33.5142,-86.8178,Jefferson,FO-AL-BIRMINGHAM NORTH,APC,1
BMN,30.881339,-87.793921,Baldwin,FO-AL-SOUTH-MOBILE BLT HUB,APC,6
BMS,33.175621,-86.774021,Shelby,FO-AL-BIRMINGHAM SOUTH,APC,1
BMT,30.080174,-94.126556,Jefferson,FO-GA-SE-NATIONAL,SOGAS,47
BMX,32.86309,-96.77078,Dallas,FO-GA-SE-NATIONAL,SOGAS,48
BNA,32.327866,-84.522055,Marion,FO-GA-SW-AMERICUS,GPC,49
BNB,30.913971,-84.603277,Decatur,FO-GA-SW-BAINBRIDGE,GPC,30
BND,30.8582,-88.8083806,,FO-MS-O-CENTRAL,MPC,50
BNV,31.9111167,-84.7722417,BENEVOLENCE,FO-GA-SW-AMERICUS,GPC,1
BOA,34.1895,-86.1518,Marshall,FO-AL-ALBERTVILLE,APC,1
BOD,33.557496,-85.220098,Carroll,FO-GA-NW-CARROLL/HEARD/DOUGLAS,GPC,1
BOE,34.6167,-87.0664,Morgan,FO-AL-BIRMINGHAM NORTH,SOLINC,1
BOR,34.360472,-83.090333,Hart,FO-GA-NE-GAINESVILLE,GPC,1
BOS,33.71338,-83.485045,Morgan,FO-GA-NE-ATHENS WEST,GPC,51
BOW,34.12511,-84.922428,Bartow,FO-GA-NW-BARTOW/CHEROKEE & NORTH,GPC,1
BOX,32.5662222,-84.6840556,BOX SPRINGS,FO-GA-SW-COLUMBUS,GPC,1
BRA,33.194725,-83.295686,Putnam,FO-GA-SW-MACON-EAST,GPC,1
BRB,30.4125,-87.24277,Escambia,FO-FL-FPL SERVICE DESK BLT HUB 1,NextEra,6
BRD,33.2535,-87.3255,Tuscaloosa,FO-AL-TUSCALOOSA,APC,1
BRG,31.697678,-85.828125,Pike,FO-AL-EUFAULA,APC,11
BRK,34.1611,-86.4966,Blount,FO-AL-ALBERTVILLE,APC,1
BRL,32.39841,-81.70249,Bulloch,FO-GA-SE-SAVANNAH 2,GPC,5
BRM,33.89245,-86.83552,Blount,FO-AL-BIRMINGHAM NORTH,APC,1
BRN,31.242624,-81.536314,Glynn,FO-GA-SE-HINESVILLE-BRUNSWICK,SOGAS,33
BRO,33.867639,-84.333694,Dekalb,FO-GA-NE-METRO NORTHEAST,GPC,1
BRS,34.092853,-83.769735,Jackson,FO-GA-NE-GAINESVILLE,GPC,1
BRT,31.5413,-86.2373,Crenshaw,FO-AL-DOTHAN WEST,APC,52
BRU,31.202992,-81.494801,Glynn,FO-GA-SE-HINESVILLE-BRUNSWICK,GPC,33
BRV,28.289237,-80.698327,Brevard,FO*-NEE-FCG Contacts,SOGAS,53
BRW,31.125842,-87.078333,Escambia,FO-AL-MOBILE NORTHEAST,APC,6
BRY,30.9244,-87.0549,Santa Rosa,FO-FL-NEXTERA ENERGY,SOLINC,6
BSC,30.40083,-88.86833,Harrison,FO-MS-O-SOUTH,MPC,6
BSF,31.489431,-89.730597,Jefferson Davis,FO-MS-O-CENTRAL,MPC,6
BSG,31.96667,-89.20194,Jasper,FO-MS-O-NORTH CENTRAL,MPC,6
BSL,30.318975,-89.337999,Hancock,FO-MS-O-SOUTHWEST,MPC,6
BSP,31.1536361,-86.6348306,BLUE SPRING WMA,FO-AL-DOTHAN WEST,APC,54
BST,33.747943,-87.050546,Walker,FO-AL-MILLER SP,SCS,1
BSY,33.993097,-84.572896,Cobb,FO-GA-NW-COBB,GPC,1
BTE,32.0285,-88.2628,Choctaw,FO-AL-MOBILE NORTHWEST,APC,55
BTH,34.516221,-102.422165,Castro,FO-SPC-PLANT SUPPORT 1 BLT HUB,SPC,56
BTL,32.554532,-84.238631,Taylor,FO-GA-SW-MACON-WEST,GPC,57
BTN,30.81481,-83.7398,Brooks,FO-GA-SW-BAINBRIDGE,GPC,58
BTR,32.55611,-84.2725,Taylor,FO-GA-SW-MACON-WEST,SPC,57
BTT,32.11897,-88.21557,Choctaw,FO-AL-MOBILE NORTHWEST,APC,55
BUA,33.783986,-85.161522,Haralson,FO-GA-NW-PAULDING/POLK/HARALSON,GPC,1
BUC,33.261525,-87.100236,Tuscaloosa,FO-AL-BIRMINGHAM SOUTHWEST,APC,1
BUD,34.127146,-84.007929,Gwinnett,FO-GA-NE-CUMMING,GPC,1
BUE,33.827736,-84.36833,Fulton,FO-GA-NE-METRO NORTHEAST,GPC,1
BUF,37.39649,-101.0449,Haskell,FO-GA-SE-NATIONAL,APC,59
BUG,32.5556,-84.1867,Taylor,FO-GA-SW-MACON-WEST,GPC,57
BUH,33.279586,-87.799725,Tuscaloosa,FO-AL-FAYETTE,APC,1
BUK,33.855939,-84.383433,Fulton,FO-GA-NW-METRO NORTHWEST,GPC,1
BUL,33.968331,-84.378264,Fulton,FO-GA-NW-METRO NORTHWEST,GPC,1
BUN,31.203322,-81.492894,Glynn,FO-GA-SE-HINESVILLE-BRUNSWICK,GPC,33
BUP,33.5975,-84.482138,Fulton,FO-GA-NW-COWETA/FAYETTE/SOUTH FULTON,GPC,1
BUR,34.79361,-83.54028,Rabun,FO-GA-NE-CORNELIA,GPC,1
BUT,32.091001,-88.220279,Choctaw,FO-AL-SOUTH-MOBILE BLT HUB,APC,55
BUY,32.722053,-86.2365,Elmore,FO-AL-MONTGOMERY EAST,APC,1
BVW,31.193236,-84.549225,BELLVIEW,FO-GA-SW-BAINBRIDGE,GPC,60
BWD,41.880156,-87.872007,Cook,FO-SOGAS-IL REGIONS BLT HUB,SOGAS,29
BWH,33.263438,-86.797255,Shelby,FO-AL-BIRMINGHAM EAST,SOLINC,1
BXL,31.783309,-82.340394,Appling,FO-GA-SE-BAXLEY,GPC,16
BXT,32.195335,-89.1751,Jasper,FO-MS-O-NORTH CENTRAL,MPC,6
BYR,32.5902,-83.7614,Peach,FO-GA-SW-MACON-WEST,GPC,1
CAA,31.2388,-84.1841,Mitchell,FO-GA-SW-BAINBRIDGE,GPC,61
CAD,31.95486,-87.26537,Wilcox,FO-AL-DEMOPOLIS,APC,62
CAE,33.108075,-86.732731,Shelby,FO-AL-BIRMINGHAM SOUTH,APC,1
CAG,40.416064,-91.121302,Hancock,FO-GA-SE-ILLINOIS-NORTH,SOGAS,63
CAH,33.46263,-86.713405,Jefferson,FO-AL-BIRMINGHAM NORTHEAST,APC,1
CAI,32.1837,-86.0797,Montgomery,FO-AL-EUFAULA,APC,1
CAL,33.143912,-86.74854,Shelby,FO-AL-BIRMINGHAM SOUTH,APC,1
CAM,31.993,-87.278108,Wilcox,FO-AL-DEMOPOLIS,APC,62
CAN,34.232663,-84.498972,Cherokee,FO-GA-NW-BARTOW/CHEROKEE & NORTH,GPC,1
CAO,34.232211,-84.499916,Cherokee,FO-GA-NW-BARTOW/CHEROKEE & NORTH,GPC,1
CAP,33.697172,-84.534196,Fulton,FO-GA-NW-COWETA/FAYETTE/SOUTH FULTON,GPC,1
CAS,33.6921,-84.4888,Fulton,FO-GA-NW-METRO SOUTHWEST,GPC,1
CAT,33.2096,-88.1338,Pickens,FO-AL-FAYETTE,APC,1
CAU,34.5487,-84.9256,Gordon,FO-GA-NW-BARTOW/CHEROKEE & NORTH,GPC,1
CAV,34.186397,-84.758413,Bartow,FO-GA-NW-BARTOW/CHEROKEE & NORTH,GPC,1
CAW,33.719525,-84.422128,Fulton,FO-GA-NW-METRO SOUTHWEST,GPC,1
CAY,34.906575,-83.414885,Rabun,FO-GA-NE-CORNELIA,GPC,1
CBA,33.206825,-86.57795,Shelby,FO-AL-BIRMINGHAM SOUTH,APC,1
CBO,33.99681,-84.52413,Cobb,FO-GA-NW-COBB,GPC,1
CBS,32.513668,-84.966765,Muscogee,FO-GA-SW-COLUMBUS,GPC,1
CBU,32.468035,-84.964534,Muscogee,FO-GA-SW-COLUMBUS,GPC,1
CCA,33.76276,-84.378685,Fulton,FO-GPCCORP-ATL CHILD CARE CTR BLT HUB,GPC,1
CCB,33.49991,-84.220204,Henry,FO-GA-NW-CLAYTON/HENRY/SPALDING/BUTTS,GPC,1
CCC,33.500078,-84.219852,Henry,FO-GPCCORP-CCC HENRY COUNTY BLT HUB,GPC,1
CCG,33.545772,-84.407217,Clayton,FO-GA-NW-CLAYTON/HENRY/SPALDING/BUTTS,SOGAS,1
CCH,32.9447,-87.15221,Bibb,FO-AL-TUSCALOOSA,APC,1
CCL,33.611273,-84.387934,Clayton,FO-GA-NW-CLAYTON/HENRY/SPALDING/BUTTS,GPC,1
CCO,33.2814,-85.7981,Clay,FO-AL-ASHLAND,APC,1
CCP,35.173554,-81.410751,Cleveland,FO-SPC-PLANT SUPPORT 3 BLT HUB,SPC,64
CCR,33.796402,-86.434871,St. Clair,FO-AL-BIRMINGHAM EAST,APC,1
CCS,33.54466,-84.40741,CLAYTON,FO-GA-NW-CLAYTON/HENRY/SPALDING/BUTTS,SOGAS,1
CCV,37.438603,-77.158307,Charles City,FO-GA-SE-NATIONAL,SOGAS,65
CDA,32.4087,-86.25925,Montgomery,FO-AL-MONTGOMERY EAST,APC,1
CDI,33.588034,-85.102431,Carroll,FO-GA-NW-CARROLL/HEARD/DOUGLAS,GPC,1
CDL,30.85778,-85.38306,Jackson,FO-FL-NEXTERA ENERGY,NextEra,11
CDN,32.8769444,-84.0869444,CULLODEN,FO-GA-SW-MACON-WEST,GPC,1
CDO,31.25093,-89.82932,Marion,FO-MS-O-CENTRAL,MPC,66
CDS,31.1798306,-84.9744639,CEDAR SPRINGS,FO-GA-SW-BAINBRIDGE,GPC,11
CDT,34.00861,-85.26778,Polk,FO-GA-NW-PAULDING/POLK/HARALSON,GPC,1
CDW,32.339639,-83.0453,Laurens,FO-GA-SW-PERRY,GPC,67
CEA,33.0512639,-88.2636056,COCHRANE REC AREA,FO-AL-FAYETTE,APC,1
CEC,32.2939,-86.0109,Montgomery,FO-AL-EUFAULA,APC,1
CED,32.263675,-82.885151,Laurens,FO-GA-SW-PERRY,GPC,68
CEE,33.777321,-84.389072,Fulton,FO-GPCCORP-GEORGIA RESOURCE CTR BLT HUB,GPC,1
CEM,33.5655,-85.0165,Carroll,FO-GA-NW-CARROLL/HEARD/DOUGLAS,GPC,1
CEN,33.76685,-84.36266,Fulton,FO-GA-NE-METRO SOUTHEAST,GPC,1
CET,34.000062,-85.294979,Polk,FO-GA-NW-PAULDING/POLK/HARALSON,GPC,1
CEV,32.92533,-87.19936,Bibb,FO-AL-TUSCALOOSA,APC,1
CEY,33.663592,-84.3296,DeKalb,FO-GA-NW-CLAYTON/HENRY/SPALDING/BUTTS,GPC,1
CFD,33.8982778,-83.1301944,CRAWFORD,FO-GA-NE-ATHENS EAST,GPC,1
CFE,31.7659,-88.09087,Clarke,FO-AL-MOBILE NORTHEAST,APC,62
CFF,31.181261,-85.898628,Geneva,FO-AL-DOTHAN WEST,APC,11
CFO,34.206514,-84.812393,Bartow,FO-GA-NW-BARTOW/CHEROKEE & NORTH,GPC,1
CFV,33.428845,-86.34048,St. Clair,FO-AL-ASHLAND,APC,1
CFW,31.095803,-100.0342,,FO-SPC-PLANT SUPPORT 2 BLT HUB,SPC,69
CGF,33.320107,-83.843769,Butts,FO-GA-NE-CONYERS,GPC,1
CGH,33.34494,-83.15661,Putnam,FO-GA-SW-MACON-EAST,GPC,1
CH1,34.28857,-84.385204,Cherokee,FO-GA-NW-BARTOW/CHEROKEE & NORTH,SOGAS,1
CHA,33.68222,-86.63556,Jefferson,FO-AL-BIRMINGHAM NORTHEAST,APC,1
CHC,34.921524,-85.260979,Catoosa,FO-GA-NW-FLOYD & NORTH,SOGAS,1
CHD,34.301091,-84.419234,Cherokee,FO-GA-NW-BARTOW/CHEROKEE & NORTH,SOGAS,1
CHE,33.3565,-86.6347,Shelby,FO-AL-BIRMINGHAM EAST,APC,1
CHG,32.666818,-85.082159,Harris,FO-GA-SW-COLUMBUS,GPC,1
CHH,30.919528,-88.204,Mobile,FO-AL-MOBILE NORTHWEST,APC,6
CHI,30.779285,-85.533843,Washington,FO-FL-NEXTERA ENERGY,NextEra,11
CHL,33.89788,-84.30448,Dekalb,FO-GA-NE-METRO NORTHEAST,GPC,1
CHM,33.8894,-84.31008,DeKalb,FO-GA-NE-METRO NORTHEAST,GPC,1
CHN,32.062513,-86.039956,Montgomery,FO-AL-EUFAULA,APC,1
CHO,31.4616,-88.257,Washington,FO-AL-MOBILE NORTHWEST,APC,70
CHP,30.779285,-85.533843,Washington,FO-FL-NEXTERA ENERGY,NextEra,11
CHR,32.379092,-83.171096,Dodge,FO-GA-SW-PERRY,GPC,67
CHS,33.87716,-84.41288,Fulton,FO-GA-NW-METRO NORTHWEST,GPC,1
CHT,34.76417,-84.77111,Murray,FO-GA-NW-BARTOW/CHEROKEE & NORTH,GPC,1
CHV,30.46972,-88.5075,Jackson,FO-MS-O-SOUTHEAST,MPC,6
CHW,30.779285,-85.533843,Washington,FO-FL-NEXTERA ENERGY,NextEra,11
CIF,30.530426,-87.311826,Escambia,FO-FL-NEXTERA ENERGY,NextEra,6
CIL,31.67719,-85.61425,Barbour,FO-AL-EUFAULA,APC,71
CIM,36.463223,-104.649135,COLFAX,FO-SPC-PLANT SUPPORT 1 BLT HUB,SPC,72
CIT,31.0847,-88.261,Mobile,FO-AL-MOBILE NORTHWEST,APC,6
CKS,34.6136944,-83.492,,FO-GA-NE-CORNELIA,GPC,1
CKY,32.3511111,-88.9002694,,FO-MS-O-NORTH CENTRAL,MPC,6
CLA,32.803986,-86.588295,Chilton,FO-AL-MONTGOMERY EAST,APC,1
CLD,35.146015,-84.883244,Bradley,FO-GA-NW-FLOYD & NORTH,SOGAS,73
CLE,33.6778,-84.396,Fulton,FO-GA-NE-METRO SOUTHEAST,GPC,1
CLF,33.5379389,-85.66225,CHULAFINNEE,FO-AL-ANNISTON,APC,1
CLG,35.079952,-85.253763,Hamilton,FO-GA-NW-FLOYD & NORTH,SOGAS,1
CLI,31.178058,-81.354602,Glynn,FO-GA-SE-HINESVILLE-BRUNSWICK,GPC,33
CLK,42.248102,-88.332279,McHenry,FO-SOGAS-IL REGIONS BLT HUB,SOGAS,74
CLM,33.459661,-87.009467,Jefferson,FO-AL-BIRMINGHAM NORTHWEST,APC,1
CLN,32.8697,-86.6494,Chilton,FO-AL-MONTGOMERY EAST,APC,1
CLO,32.842926,-86.63239,Chilton,FO-AL-MONTGOMERY EAST,APC,1
CLP,34.942068,-83.39296,Rabun,FO-GA-NE-CORNELIA,GPC,1
CLR,34.47374,-83.766568,Hall,FO-GA-NE-GAINESVILLE,GPC,1
CLS,32.47593,-84.86982,Muscogee,FO-GA-SW-COLUMBUS,GPC,1
CLT,34.942068,-83.39296,Rabun,FO-GA-NE-CORNELIA,GPC,1
CLU,31.301106,-85.105865,Houston,FO-AL-DOTHAN EAST,APC,11
CLW,32.853061,-84.849145,Harris,FO-GA-SW-COLUMBUS,GPC,1
CLY,34.87778,-83.40111,Rabun,FO-GA-NE-CORNELIA,GPC,1
CMB,32.504677,-84.934521,Muscogee,FO-GA-SW-COLUMBUS,GPC,1
CME,32.02675,-85.345,COMER (AL),FO-AL-EUFAULA,APC,1
CMM,34.184417,-84.125556,Forsyth,FO-GA-NE-CUMMING,GPC,1
CMR,34.072,-83.1081,Madison,FO-GA-NE-ATHENS EAST,GPC,1
CMT,33.97568,-86.20113,St. Clair,FO-AL-ALBERTVILLE,APC,1
CMX,30.815287,-84.39782,Decatur,FO-GA-SW-BAINBRIDGE,GPC,30
CNG,33.17983,-87.38237,Tuscaloosa,FO-AL-TUSCALOOSA,APC,1
CNL,34.507118,-83.544529,Habersham,FO-GA-NE-CORNELIA,GPC,1
CNN,33.9202611,-82.5886694,CHENNAULT,FO-GA-SE-AUGUSTA 1,GPC,75
CNS,33.98355,-84.532487,Cobb,FO-GA-NW-COBB,SOGAS,1
CNT,34.12925,-85.67668,Cherokee,FO-AL-GADSDEN,APC,1
CO1,32.421549,-88.768158,Lauderdale,FO-MS-O-NORTH,MPC,6
CO2,32.348416,-88.771248,Lauderdale,FO-MS-O-NORTH,MPC,6
CO3,32.078093,-88.914735,Jasper,FO-MS-O-NORTH CENTRAL,MPC,6
CO4,31.93379,-88.998581,Jasper,FO-MS-O-NORTH CENTRAL,MPC,6
CO5,31.866795,-89.028692,Jasper,FO-MS-O-NORTH CENTRAL,MPC,6
COA,30.384741,-89.096192,Harrison,FO-MS-O-SOUTH CENTRAL,MPC,6
COC,34.200257,-83.428879,Jackson,FO-GA-NE-GAINESVILLE,GPC,1
COD,31.9395,-83.7785,Crisp,FO-GA-SW-AMERICUS,GPC,1
COE,33.6363,-84.4941,Fulton,FO-GA-NW-COWETA/FAYETTE/SOUTH FULTON,GPC,1
COF,33.58131,-85.06328,Carroll,FO-GA-NW-CARROLL/HEARD/DOUGLAS,GPC,1
COG,33.6193,-83.8933,Newton,FO-GA-NE-CONYERS,GPC,1
COH,34.253121,-85.35627,Floyd,FO-GA-NW-FLOYD & NORTH,GPC,1
COI,33.610447,-83.740293,Newton,FO-GA-NE-CONYERS,GPC,1
COK,33.23948,-87.71474,Tuscaloosa,FO-AL-FAYETTE,APC,1
COL,32.480361,-84.991082,Muscogee,FO-GA-SW-COLUMBUS,GPC,1
COO,31.010522,-83.881122,Thomas,FO-GA-SW-BAINBRIDGE,GPC,13
COP,32.611994,-81.705172,Screven,FO-GA-SE-SAVANNAH 2,GPC,76
COQ,31.149,-84.8207,Miller,FO-GA-SW-BAINBRIDGE,GPC,11
COR,33.77269,-87.16512,Walker,FO-AL-MILLER SP,APC,1
COS,33.650393,-83.976865,Rockdale,FO-GA-NE-CONYERS,SOGAS,1
COT,33.473944,-85.586,Randolph,FO-AL-ANNISTON,APC,1
COU,33.85858,-84.56805,Cobb,FO-GA-NW-COBB,GPC,1
COV,30.440987,-89.025596,Harrison,Plant Watson/Chevron CoGen Employee Contact,MPC,6
COY,33.260094,-87.549811,Tuscaloosa,FO-AL-FAYETTE,APC,1
CPB,31.9133444,-88.0082472,CAMPBELL,FO-AL-MOBILE NORTHEAST,APC,77
CPK,36.766404,-76.288447,Chesapeake,FO-GA-SE-NATIONAL,SOGAS,78
CPN,33.436182,-86.728547,Jefferson,FO-AL-BIRMINGHAM NORTHEAST,SCS,1
CPP,36.774853,-76.280845,Chesapeake,FO-GA-SE-NATIONAL,SOGAS,78
CPR,30.54868,-87.26905,Escambia,FO-FL-NEXTERA ENERGY,NextEra,6
CPS,33.435593,-86.727862,Jefferson,FO-AL-BIRMINGHAM NORTHEAST,SCS,1
CPV,32.73452,-115.716987,Imperial,FO-SPC-PLANT SUPPORT 2 BLT HUB,SPC,79
CRA,32.82861,-88.03,Greene,FO-AL-FAYETTE,APC,1
CRC,33.509887,-86.816213,Jefferson,FO-AL-BIRMINGHAM DOWNTOWN SOUTH,APC,1
CRD,33.810833,-84.428611,Fulton,FO-GA-NW-METRO NORTHWEST,GPC,1
CRF,33.73227,-84.19731,DeKalb,FO-GA-NE-CONYERS,GPC,1
CRG,33.578502,-85.086284,Carroll,FO-GA-NW-CARROLL/HEARD/DOUGLAS,GPC,1
CRI,30.902,-84.248056,GRADY,FO-GA-SW-BAINBRIDGE,GPC,30
CRK,33.263007,-85.633819,Randolph,FO-AL-ASHLAND,APC,1
CRL,31.093399,-88.238449,Mobile,FO-AL-SOUTH-MOBILE BLT HUB,APC,6
CRN,32.384759,-83.35995,Bleckley,FO-GA-SW-PERRY,GPC,80
CRO,31.14983,-81.49262,Glynn,FO-GA-SE-HINESVILLE-BRUNSWICK,GPC,33
CRP,30.566159,-87.224514,Escambia,FO-FL-NEXTERA ENERGY,NextEra,6
CRR,33.58131,-85.06328,Carroll,FO-GA-NW-CARROLL/HEARD/DOUGLAS,GPC,1
CRS,33.195042,-83.178953,Hancock,FO-GA-SE-AUGUSTA 1,GPC,1
CRT,34.206514,-84.812458,Bartow,FO-GA-NW-BARTOW/CHEROKEE & NORTH,GPC,1
CRW,33.554333,-82.842972,Taliaferro,FO-GA-SE-AUGUSTA 1,GPC,1
CSA,32.3103,-84.7604,Chattahoochee,FO-GA-SW-AMERICUS,GPC,1
CSC,33.545772,-84.407217,Clayton,FO-GA-NW-CLAYTON/HENRY/SPALDING/BUTTS,SOGAS,1
CSF,33.126352,-115.493217,Imperial,FO-SPC-PLANT SUPPORT 2 BLT HUB,SPC,14
CSG,33.173794,-86.770374,Shelby,FO-AL-BIRMINGHAM SOUTH,APC,1
CSI,34.094441,-83.145338,Madison,FO-GA-NE-ATHENS EAST,GPC,1
CSM,34.818889,-86.738611,Madison,FO-AL-BIRMINGHAM NORTH,APC,1
CSN,33.625054,-84.387102,,FO-GA-NW-CLAYTON/HENRY/SPALDING/BUTTS,GPC,1
CSP,33.839069,-85.909247,Calhoun,FO-AL-GADSDEN,APC,1
CSS,34.279,-84.82094,Bartow,FO-GA-NW-BARTOW/CHEROKEE & NORTH,GPC,1
CST,33.702386,-84.329791,Dekalb,FO-GA-NE-METRO SOUTHEAST,GPC,1
CSW,34.76941,-86.81952,Limestone,FO-AL-BIRMINGHAM NORTH,SOLINC,1
CTA,33.65491,-85.829331,CALHOUN,FO-AL-ANNISTON,APC,1
CTB,31.3066944,-87.0231944,CASTLEBERRY,FO-AL-MOBILE NORTHEAST,APC,1
CTH,32.164217,-87.496778,Wilcox,FO-AL-DEMOPOLIS,APC,62
CTL,34.6884,-87.3312,Lawrence,FO-AL-JASPER,SOLINC,1
CTN,34.232211,-84.499916,Cherokee,FO-GA-NW-BARTOW/CHEROKEE & NORTH,GPC,1
CTR,34.20472,-84.81223,Bartow,FO-GA-NW-BARTOW/CHEROKEE & NORTH,GPC,1
CTS,33.171342,-86.769612,Shelby,FO-AL-BIRMINGHAM SOUTH,APC,1
CTV,32.944948,-87.145857,Bibb,FO-AL-TUSCALOOSA,APC,1
CTW,34.72609,-84.78874,Murray,FO-GA-NW-BARTOW/CHEROKEE & NORTH,GPC,1
CUB,33.8807,-84.475217,Cobb,FO-GA-NW-COBB,GPC,1
CUL,34.182638,-86.879781,Cullman,FO-AL-BIRMINGHAM NORTH,SOLINC,1
CUM,34.159012,-84.159312,Forsyth,FO-GA-NE-CUMMING,SOGAS,1
CUP,33.518338,-86.81353,Jefferson,FO-AL-BIRMINGHAM DOWNTOWN NORTH,APC,1
CUR,33.96418,-87.20946,Walker,FO-AL-MILLER SP,APC,1
CUS,32.755497,-85.263427,Chambers,FO-AL-PHENIX CITY,APC,1
CUT,31.782201,-84.759167,Randolph,FO-GA-SW-BAINBRIDGE,GPC,1
CVE,34.28118,-85.87759,DeKalb,FO-AL-GADSDEN,SOLINC,81
CVL,34.012971,-86.567381,Blount,FO-AL-BIRMINGHAM NORTH,APC,1
CVS,34.146219,-85.306038,Floyd,FO-GA-NW-FLOYD & NORTH,GPC,1
CVT,31.15357,-88.01187,Washington,FO-AL-MOBILE BARRY,APC,6
CVW,36.517845,-97.658601,Garfield,FO-GA-SE-NATIONAL,APC,82
CWD,41.647068,-87.741343,Cook,FO-GA-SE-ILLINOIS-SOUTH,SOGAS,83
CXT,32.173288,-81.899654,Evans,FO-GA-SE-SAVANNAH 3,GPC,84
CYB,33.40909,-86.91131,JEFFERSON,FO-AL-BIRMINGHAM SOUTHWEST,SCS,1
CYN,31.852075,-85.400058,CLAYTON AL (LTE),FO-AL-EUFAULA,SOLINC,85
CYT,32.514793,-84.886484,Muscogee,FO-GA-SW-COLUMBUS,GPC,1
DAC,33.987996,-83.889394,Gwinnett,FO-GA-NE-CONYERS,GPC,1
DAD,32.83317,-85.76225,Tallapoosa,FO-AL-ASHLAND,APC,1
DAE,32.817431,-85.710209,Tallapoosa,FO-AL-ASHLAND,APC,1
DAH,33.978928,-83.390683,Clarke,FO-GA-NE-ATHENS EAST,GPC,1
DAL,33.933317,-84.724138,Paulding,FO-GA-NW-PAULDING/POLK/HARALSON,GPC,1
DAO,34.524882,-83.99772,Lumpkin,FO-GA-NE-CUMMING,GPC,1
DAP,30.674354,-87.868722,Baldwin,FO-AL-MOBILE SOUTHEAST,,6
DAR,31.411533,-81.452642,McIntosh,FO-GA-SE-HINESVILLE-BRUNSWICK,GPC,43
DAT,34.79082,-82.40907,Greenville,FO-GA-SE-NATIONAL,SOGAS,86
DAU,33.479155,-81.984151,Richmond,FO-GA-SE-AUGUSTA 2,GPC,1
DAV,32.31782,-85.67105,Macon,FO-AL-PHENIX CITY,APC,1
DAW,34.3745,-84.043,Dawson,FO-GA-NE-CUMMING,GPC,1
DBO,32.52502,-82.92628,Laurens,FO-GA-SW-PERRY,GPC,16
DBS,34.149358,-87.429305,Winston,FO-AL-JASPER,APC,1
DCA,33.479155,-81.984151,Richmond,FO-GA-SE-AUGUSTA 2,GPC,1
DCC,28.433386,-81.414421,,FO-GA-SE-NATIONAL,SCS,87
DCH,32.81778,-85.77444,Tallapoosa,FO-AL-ASHLAND,APC,1
DCM,32.819036,-83.674268,Bibb,FO-GA-SW-MACON-EAST,GPC,1
DCO,32.480361,-84.991082,Muscogee,FO-GA-SW-COLUMBUS,GPC,1
DCQ,32.497009,-87.815499,Marengo,FO-AL-DEMOPOLIS,APC,88
DCT,33.808161,-84.277242,Dekalb,FO-GA-NE-METRO NORTHEAST,GPC,1
DDI,33.833296,-84.253775,DeKalb,FO-GA-NE-METRO NORTHEAST,GPC,1
DDO,34.746867,-84.960966,Whitfield,FO-GA-NW-FLOYD & NORTH,GPC,1
DEC,33.7775,-84.2938,DeKalb,FO-GA-NE-METRO SOUTHEAST,GPC,1
DEE,32.16139,-88.834462,Clarke,FO-MS-O-NORTH CENTRAL,MPC,6
DEG,33.4234861,-82.3839417,DEARING,FO-GA-SE-AUGUSTA 1,GPC,1
DEK,41.957727,-88.71342,Dekalb,FO-SOGAS-IL REGIONS BLT HUB,SOGAS,89
DEM,32.5048,-87.8274,Marengo,FO-AL-DEMOPOLIS,APC,88
DEP,31.2504,-88.30535,Washington,FO-AL-MOBILE NORTHWEST,APC,90
DER,30.712681,-88.167025,Mobile,FO-AL-MOBILE NORTHWEST,APC,6
DES,30.387295,-86.431825,Okaloosa,FO-FL-NEXTERA ENERGY,NextEra,6
DET,34.0606917,-88.1320556,DETROIT,FO-AL-JASPER,APC,1
DEW,32.44097,-87.98612,Marengo,FO-AL-DEMOPOLIS,APC,6
DFP,33.663962,-86.568631,Jefferson,FO-AL-BIRMINGHAM NORTHEAST,APC,1
DFS,32.816881,-85.774941,Tallapoosa,FO-AL-ASHLAND,APC,1
DGP,34.742591,-85.015581,Whitfield,FO-GA-NW-FLOYD & NORTH,GPC,1
DHA,33.756167,-84.595932,,FO-GA-NW-COBB,GPC,1
DHB,33.758048,-84.594122,DOUGLAS,FO-GA-NW-COBB,GPC,1
DHQ,33.76361,-84.38194,Fulton,FO-GA-NE-METRO SOUTHEAST,GPC,1
DHW,44.847981,-96.641493,Deuel,FO-SPC-PLANT SUPPORT 2 BLT HUB,SPC,91
DIA,35.92135,-78.841798,DURHAM,FO-GA-SE-NATIONAL,SCS,92
DIB,35.920189,-78.841443,DURHAM,FO-POWER SECURE LOCATIONS,SCS,92
DIC,35.919715,-78.846846,DURHAM,FO-POWER SECURE LOCATIONS,SCS,92
DIL,31.30618,-85.7153,Dale,FO-AL-DOTHAN WEST,APC,11
DIX,41.85182,-89.524357,Lee,FO-GA-SE-ILLINOIS-NORTH,SOGAS,93
DLO,32.816881,-85.774941,Tallapoosa,FO-AL-ASHLAND,APC,1
DLS,34.719204,-84.935859,Whitfield,FO-GA-NW-FLOYD & NORTH,GPC,1
DLT,34.74916,-84.9604,Whitfield,FO-GA-NW-FLOYD & NORTH,GPC,1
DLV,31.31111,-85.70778,Dale,FO-AL-DOTHAN WEST,APC,11
DMA,32.819036,-83.674268,Bibb,FO-GA-SW-MACON-EAST,GPC,1
DMC,31.3133444,-84.7197278,DAMASCUS,FO-GA-SW-BAINBRIDGE,GPC,17
DMP,32.5181,-87.8389,Marengo,FO-AL-DEMOPOLIS,APC,88
DNV,34.1363889,-83.2375,,FO-GA-NE-ATHENS EAST,GPC,1
DOC,30.530686,-87.311895,Escambia,FO-FL-NEXTERA ENERGY,NextEra,6
DOD,34.054904,-86.872469,Cullman,FO-AL-BIRMINGHAM NORTH,SOLINC,1
DOE,31.329831,-83.927567,Colquitt,FO-GA-SW-BAINBRIDGE,GPC,94
DOG,33.7724,-84.7155,Douglas,FO-GA-NW-PAULDING/POLK/HARALSON,GPC,1
DOH,34.53393,-83.98564,Lumpkin,FO-GA-NE-CUMMING,GPC,1
DON,31.041891,-84.838247,Seminole,FO-GA-SW-BAINBRIDGE,GPC,11
DOO,32.2205583,-83.9381417,DOOLING,FO-GA-SW-AMERICUS,GPC,95
DOR,33.75719,-87.06553,Walker,FO-AL-MILLER SP,APC,1
DOT,31.2298,-85.4335,Houston,FO-AL-DOTHAN WEST,APC,11
DOZ,31.5014917,-86.37025,DOZIER,FO-AL-DOTHAN WEST,APC,52
DPH,30.59973,-87.89652,Baldwin,FO-AL-MOBILE SOUTHEAST,APC,6
DPL,42.014987,-87.883759,Cook,FO-SOGAS-IL REGIONS BLT HUB,SOGAS,29
DPO,30.416249,-87.223008,Escambia,FO-FL-NEXTERA ENERGY,NextEra,6
DPR,33.978928,-83.390683,Clarke,FO-GA-NE-ATHENS EAST,GPC,1
DRA,33.88372,-84.26472,DeKalb,FO-GA-NE-METRO NORTHEAST,GPC,1
DRC,33.20355,-87.530736,Tuscaloosa,FO-AL-TUSCALOOSA,APC,1
DRE,33.867139,-84.285056,DeKalb,FO-GA-NE-METRO NORTHEAST,GPC,1
DRK,33.8422694,-84.9789694,Paulding,FO-GA-NW-PAULDING/POLK/HARALSON,GPC,1
DRO,34.249803,-85.160362,Floyd,FO-GA-NW-FLOYD & NORTH,GPC,1
DRY,32.7873972,-83.4740944,DRY BRANCH,FO-GA-SW-PERRY,GPC,1
DSA,32.055709,-81.120988,Chatham,FO-GA-SE-SAVANNAH 1,GPC,5
DSL,31.25664,-85.43377,Houston,FO-AL-DOTHAN WEST,APC,11
DSP,30.719707,-86.115392,Walton,FO-FL-NEXTERA ENERGY,NextEra,96
DSS,35.562807,-115.432634,San Bernardino,FO-SPC-PLANT SUPPORT 2 BLT HUB,SPC,97
DSX,30.986038,-84.62465,Decatur,FO-GA-SW-BAINBRIDGE,SPC,30
DTC,30.660818,-88.088211,,FO-AL-MOBILE SOUTHEAST,APC,6
DTJ,32.96046,-86.73873,Chilton,FO-AL-MONTGOMERY EAST,APC,1
DTL,30.3580556,-89.1591667,,FO-MS-O-SOUTH CENTRAL,MPC,6
DTN,31.7017194,-82.7098611,DENTON,FO-GA-SE-BAXLEY,GPC,16
DTO,31.950213,-84.018786,Sumter,FO-GA-SW-AMERICUS,GPC,98
DTP,32.47249,-85.01322,Russell,FO-AL-PHENIX CITY,APC,1
DTT,32.8895,-84.3276,Upson,FO-GA-SW-MACON-WEST,GPC,1
DUB,32.53695,-82.91333,Laurens,FO-GA-SW-PERRY,GPC,16
DUC,34.13127,-85.99335,Etowah,FO-AL-GADSDEN,APC,1
DUG,31.508474,-82.859324,Coffee,FO-GA-SE-WAYCROSS,GPC,99
DUH,34.01588,-84.13627,Gwinnett,FO-GA-NE-CUMMING,GPC,1
DUI,32.487936,-82.930512,Laurens,FO-GA-SW-PERRY,GPC,16
DUK,34.259167,-84.293611,Cherokee,FO-GA-NW-BARTOW/CHEROKEE & NORTH,GPC,1
DUL,34.000249,-84.148202,Gwinnett,FO-GA-NE-CUMMING,GPC,1
DUN,33.04027,-87.453333,Tuscaloosa,FO-AL-TUSCALOOSA,APC,1
DUS,31.537798,-82.795292,Coffee,FO-GA-SE-WAYCROSS,GPC,99
DV9,33.781106,-84.364514,Fulton,FO-GA-NE-METRO NORTHEAST,GPC,1
DVA,33.781192,-84.365029,Fulton,FO-GA-NE-METRO NORTHEAST,GPC,1
DVB,32.9949194,-82.6187889,,FO-GA-SE-AUGUSTA 2,GPC,100
DVL,30.82504,-83.28878,Lowndes,FO-GA-SW-VALDOSTA,GPC,2
DWE,30.606681,-88.265081,Mobile,FO-AL-MOBILE SOUTHWEST,APC,6
DWO,33.9534,-84.3087,Dekalb,FO-GA-NE-CUMMING,GPC,1
DWR,30.56354,-88.33958,Mobile,FO-AL-MOBILE SOUTHWEST,APC,6
DWT,34.41687,-84.11348,Dawson,FO-GA-NE-CUMMING,GPC,1
DXU,31.3870556,-82.4581389,DIXIE UNION,FO-GA-SE-WAYCROSS,GPC,101
DYK,30.684025,-88.284667,MOBILE,FO-AL-MOBILE SOUTHWEST,APC,6
EAB,33.580358,-85.993414,Calhoun,FO-AL-ANNISTON,APC,1
EAC,33.97746,-84.439217,Cobb,FO-GA-NW-COBB,GPC,1
EAD,32.38958,-86.21468,Montgomery,FO-AL-MONTGOMERY EAST,APC,1
EAG,33.50056,-84.220714,Henry,FO-GA-NW-CLAYTON/HENRY/SPALDING/BUTTS,GPC,1
EAH,33.779246,-84.364593,Fulton,FO-GA-NE-METRO NORTHEAST,GPC,1
EAP,33.695918,-84.44167,Fulton,FO-GA-NW-METRO SOUTHWEST,GPC,1
EAT,33.72222,-84.31778,DeKalb,FO-GA-NE-METRO SOUTHEAST,GPC,1
ECD,34.030217,-85.197711,Polk,FO-GA-NW-PAULDING/POLK/HARALSON,GPC,1
ECL,32.645432,-86.054524,Elmore,FO-AL-MONTGOMERY EAST,APC,1
ECT,31.29845,-85.85457,Coffee,FO-AL-DOTHAN WEST,APC,11
ECY,34.888964,-83.300494,Rabun,FO-GA-NE-CORNELIA,GPC,1
EDG,33.52095,-86.968261,Jefferson,FO-AL-BIRMINGHAM NORTHWEST,APC,1
EDH,31.865585,-85.147111,Barbour,FO-AL-EUFAULA,APC,1
EDN,34.788,-84.8909,EAST DALTON,FO-GA-NW-FLOYD & NORTH,GPC,1
EDO,31.89046,-85.143393,Barbour,FO-AL-EUFAULA,APC,1
EDT,31.21652,-85.37888,Houston,FO-AL-DOTHAN EAST,APC,11
EDW,33.72472,-85.49444,,FO-AL-GADSDEN,APC,1
EEN,33.9666556,-82.9298278,SOUTH ELBERTON,FO-GA-NE-ATHENS EAST,GPC,75
EER,31.425152,-86.936377,CONECUH,FO-AL-MOBILE NORTHEAST,SOLINC,1
EET,34.91955,-86.8982417,,FO-AL-BIRMINGHAM NORTH,SOLINC,1
EFA,31.89039,-85.14828,Barbour,FO-AL-EUFAULA,APC,1
EFD,31.9852,-86.5223,Lowndes,FO-AL-MONTGOMERY WEST,APC,1
EGA,33.128675,-81.771133,Burke,FO-GA-SE-AUGUSTA 1,GPC,1
EGN,34.8462,-87.3991,Lauderdale,FO-AL-JASPER,SOLINC,1
EGR,33.736681,-84.214989,DeKalb,FO-GA-NE-CONYERS,GPC,1
EGT,30.412276,-87.221425,Escambia,FO-FL-FPL SERVICE DESK BLT HUB 1,NextEra,6
EHB,33.798575,-87.6599833,EAST HUBBERTVILLE,FO-AL-MILLER SP,APC,1
EJA,34.685046,-84.489166,Gilmer,FO-GA-NW-BARTOW/CHEROKEE & NORTH,GPC,1
EJF,32.7061944,-83.3224472,EAST JEFFERSONVILLE,FO-GA-SW-PERRY,GPC,1
EJY,34.672103,-84.499379,Gilmer,FO-GA-NW-BARTOW/CHEROKEE & NORTH,GPC,1
ELA,31.45474,-86.09094,Coffee,FO-AL-DOTHAN WEST,APC,102
ELB,34.112543,-82.907907,Elbert,FO-GA-NE-ATHENS EAST,GPC,103
ELC,33.792241,-82.453108,Lincoln,FO-GA-SE-AUGUSTA 1,GPC,22
ELD,31.333112,-84.473877,Baker,FO-GA-SW-BAINBRIDGE,GPC,61
ELG,42.059,-88.320127,Kane,FO-SOGAS-IL REGIONS BLT HUB,SOGAS,104
ELI,40.665016,-74.21579,Union,FO*-SJI Contacts,SOGAS,105
ELJ,34.677644,-84.502051,Gilmer,FO-GA-NW-BARTOW/CHEROKEE & NORTH,GPC,1
ELK,42.014625,-87.940393,Cook,FO-GA-SE-ILLINOIS-NORTH,SOGAS,29
ELL,31.604593,-89.194569,Jones,FO-MS-O-CENTRAL,MPC,6
ELM,32.15645,-87.06971,Dallas,FO-AL-MONTGOMERY WEST,APC,1
ELN,33.632239,-84.305751,Clayton,FO-GA-NW-CLAYTON/HENRY/SPALDING/BUTTS,GPC,1
ELU,31.7052083,-88.9196972,,FO-MS-O-NORTH CENTRAL,MPC,6
ELV,32.255,-84.3071,Schley,FO-GA-SW-AMERICUS,GPC,106
ELY,31.377648,-84.934015,Early,FO-GA-SW-BAINBRIDGE,GPC,17
EMC,33.407573,-86.913223,Jefferson,FO-APCCORP-PCC OP CTR BLT HUB,SCS,1
EMD,33.5896917,-83.3539972,EAST MADISON,FO-GA-NE-ATHENS WEST,GPC,1
EME,34.1178,-84.7723,Bartow,FO-GA-NW-BARTOW/CHEROKEE & NORTH,GPC,1
EMG,32.361385,-86.225939,Montgomery,FO-AL-MONTGOMERY EAST,APC,1
EMH,30.77167,-88.12833,Mobile,FO-AL-SOUTH-MOBILE BLT HUB,APC,6
EML,32.791725,-81.8265472,EAST MILLEN,FO-GA-SE-AUGUSTA 2,GPC,107
EMN,32.8410111,-83.5641139,EAST MACON,FO-GA-SW-MACON-EAST,GPC,1
EMO,32.913099,-83.704855,Bibb,FO-GA-SW-MACON-WEST,GPC,1
EMR,33.797483,-84.333711,Dekalb,FO-GA-NE-METRO NORTHEAST,GPC,1
ENS,33.5058,-86.8844,Jefferson,FO-AL-BIRMINGHAM NORTHWEST,APC,1
ENT,33.3646,-83.3977,Putnam,FO-GA-SW-MACON-EAST,GPC,1
ENV,33.827291,-84.480599,Cobb,FO-GA-NW-METRO NORTHWEST,GPC,1
EOC,30.529256,-87.311761,Escambia,FO-FL-NEXTERA ENERGY,NextEra,6
EOH,33.45406,-82.06544,Richmond,FO-GA-SE-AUGUSTA 2,GPC,1
EPE,32.69716,-88.13775,SUMTER,FO-AL-DEMOPOLIS,APC,6
EPK,33.827494,-84.338958,DEKALB,FO-GA-NE-METRO NORTHEAST,GPC,1
EPO,30.8563611,-89.3386889,,FO-MS-O-SOUTHWEST,MPC,6
EPQ,33.79111,-84.36667,Fulton,FO-GA-NE-METRO NORTHEAST,GPC,1
EPS,32.393133,-88.666527,Lauderdale,FO-MS-O-NORTH,MPC,6
ERA,29.985143,-91.995197,Vermilion,FO-GA-SE-NATIONAL,SOGAS,108
ERE,40.646917,-74.198461,Union,FO*-SJI Contacts,SOGAS,105
ERL,33.5331,-86.68978,,FO-AL-BIRMINGHAM NORTHEAST,APC,1
ERO,33.47139,-81.97833,Richmond,FO-GA-SE-AUGUSTA 2,GPC,1
ESE,32.3268056,-85.1562083,EAST SEALE,FO-AL-PHENIX CITY,APC,1
ESL,34.5343167,-83.2649639,,FO-GA-NE-CORNELIA,GPC,1
ESM,32.159219,-83.199028,Dodge,FO-GA-SW-PERRY,GPC,109
ESP,30.99537,-102.291272,PECOS,FO-SPC-PLANT SUPPORT 1 BLT HUB,SPC,110
EST,34.991245,-83.352756,Rabun,FO-GA-NE-CORNELIA,GPC,1
ESV,33.7544944,-87.9738417,EAST VERNON,FO-AL-JASPER,APC,1
ETA,30.4109806,-87.5267139,EAST ELBERTA,FO-AL-MOBILE SOUTHEAST,APC,6
ETF,31.46656,-83.47384,Tift,FO-GA-SE-WAYCROSS,GPC,13
ETG,33.114139,-83.477333,JONES,FO-GA-SW-MACON-EAST,GPC,1
ETH,33.428667,-88.202317,Pickens,FO-AL-FAYETTE,APC,111
ETL,33.171378,-86.770535,Shelby,FO-AL-BIRMINGHAM SOUTH,APC,1
ETP,31.32012,-85.84341,Coffee,FO-AL-DOTHAN WEST,APC,11
ETW,31.3082333,-84.3264639,NEWTON (GA),FO-GA-SW-BAINBRIDGE,GPC,61
EUF,31.89083,-85.14333,Barbour,FO-AL-EUFAULA,APC,1
EUH,31.890257,-85.149386,Barbour,FO-AL-EUFAULA,APC,1
EUN,31.06096,-85.75275,Geneva,FO-AL-DOTHAN WEST,APC,11
EUT,32.84025,-87.88819,Greene,FO-AL-DEMOPOLIS,APC,1
EUW,32.8675,-87.908,Greene,FO-AL-DEMOPOLIS,APC,1
EVA,33.57102,-82.16814,Columbia,FO-GA-SE-AUGUSTA 1,GPC,1
EVE,31.459153,-86.9749,Conecuh,FO-AL-MOBILE NORTHEAST,APC,1
EVG,33.521424,-86.815596,Jefferson,FO-AL-BIRMINGHAM DOWNTOWN NORTH,APC,1
EVN,33.541137,-82.113677,Columbia,FO-GA-SE-AUGUSTA 1,GPC,1
EVO,33.540876,-82.112321,Columbia,FO-GA-SE-AUGUSTA 1,GPC,1
EVR,33.76534,-84.38206,Fulton,FO-GA-NE-METRO SOUTHEAST,GPC,1
EWB,31.254024,-85.261652,Houston,FO-AL-DOTHAN EAST,APC,11
EWY,31.7622528,-88.5031306,EAST WAYNESBORO (MS),FO-MS-O-NORTH CENTRAL,MPC,112
FAC,33.626582,-84.38965,Clayton,FO-GA-NW-CLAYTON/HENRY/SPALDING/BUTTS,GPC,1
FAI,31.8409,-86.2791,Crenshaw,FO-AL-EUFAULA,APC,113
FAK,32.806331,-83.542067,BIBB,FO-GA-SW-MACON-EAST,GPC,1
FAM,34.44475,-84.68835,Gordon,FO-GA-NW-BARTOW/CHEROKEE & NORTH,GPC,1
FAR,33.731593,-84.509694,Fulton,FO-GA-NW-COWETA/FAYETTE/SOUTH FULTON,GPC,1
FAT,33.765236,-84.592736,Douglas,FO-GA-NW-COBB,GPC,1
FAY,33.432486,-84.440383,Fayette,FO-GA-NW-COWETA/FAYETTE/SOUTH FULTON,GPC,1
FBS,32.3007,-84.9899,Russell,FO-GA-SW-AMERICUS,GPC,1
FCH,33.526694,-84.504528,Fayette,FO-GA-NW-COWETA/FAYETTE/SOUTH FULTON,GPC,1
FDG,31.222184,-85.112918,,FO-SNC-FARLEY BLT HUB,APC,11
FEB,33.627318,-84.388968,Clayton,FO-GA-NW-CLAYTON/HENRY/SPALDING/BUTTS,GPC,1
FEL,33.909959,-85.22732,Polk,FO-GA-NW-PAULDING/POLK/HARALSON,GPC,1
FEO,31.222184,-85.112918,,FO-SNC-FARLEY BLT HUB,APC,11
FEY,30.4135,-87.68106,Baldwin,FO-AL-MOBILE SOUTHEAST,APC,6
FFO,33.47583,-86.92278,Jefferson,FO-AL-BIRMINGHAM DOWNTOWN NORTH,APC,1
FGD,33.38297,-82.13626,Richmond,FO-GA-SE-AUGUSTA 2,GPC,1
FGI,33.561473,-84.53745,Fulton,FO-GA-NW-COWETA/FAYETTE/SOUTH FULTON,GPC,1
FGN,31.6103861,-85.0167083,,FO-GA-SW-BAINBRIDGE,GPC,4
FHO,31.8345611,-86.80105,FOREST HOME,FO-AL-MONTGOMERY WEST,APC,1
FIN,33.5559,-86.8323,Jefferson,FO-AL-BIRMINGHAM DOWNTOWN NORTH,APC,1
FIT,32.19524,-85.87487,Bullock,FO-AL-EUFAULA,APC,1
FIV,33.0381361,-85.3485083,Chambers,FO-AL-ASHLAND,APC,1
FIZ,31.7352,-83.2749,Ben Hill,FO-GA-SE-WAYCROSS,GPC,114
FJC,31.36404,-85.328032,Henry,FO-SNC-FARLEY BLT HUB,APC,11
FKN,31.6841889,-87.3946167,FRANKLIN (AL),FO-AL-MOBILE NORTHEAST,APC,115
FKS,30.844,-81.989502,Charlton,FO-GA-SE-WAYCROSS,GPC,116
FLB,30.913971,-84.603277,Decatur,FO-GA-SW-BAINBRIDGE,GPC,30
FLC,32.50446,-84.934423,Muscogee,FO-GA-SW-COLUMBUS,GPC,1
FLD,33.5872,-86.8075,Jefferson,FO-AL-BIRMINGHAM DOWNTOWN NORTH,APC,1
FLE,33.623286,-84.386383,Clayton,FO-GA-NW-CLAYTON/HENRY/SPALDING/BUTTS,GPC,1
FLG,40.51775,-74.856289,Hunterdon,FO*-SJI Contacts,SOGAS,117
FLI,31.60301,-84.1377,Dougherty,FO-GA-SW-BAINBRIDGE,GPC,12
FLM,33.095862,-83.250351,Baldwin,FO-GA-SW-MACON-EAST,GPC,1
FLN,33.353886,-84.791772,Coweta,FO-GA-NW-COWETA/FAYETTE/SOUTH FULTON,GPC,1
FLR,34.250122,-85.159353,Floyd,FO-GA-NW-FLOYD & NORTH,GPC,1
FLS,32.45966,-81.800423,Bulloch,FO-GA-SE-SAVANNAH 2,GPC,5
FLT,31.4197,-83.503942,Tift,FO-GA-SE-WAYCROSS,GPC,13
FLV,32.228479,-82.428097,Toombs,FO-GA-SE-BAXLEY,GPC,16
FLY,34.19105,-83.89949,Hall,FO-GA-NE-GAINESVILLE,GPC,1
FMC,31.2248,-85.39218,Houston,FO-AL-DOTHAN EAST,APC,11
FMG,31.222184,-85.112918,,FO-SNC-FARLEY BLT HUB,APC,11
FMR,30.242311,-87.830201,Baldwin,FO-AL-MOBILE SOUTHEAST,APC,6
FNO,30.6671778,-88.9044083,FALLEN OAKS,FO-MS-O-SOUTHEAST,MPC,50
FNP,31.222105,-85.112457,Houston,FO-SNC-FARLEY BLT HUB,APC,11
FNS,33.9208,-84.30533,Dekalb,FO-GA-NE-METRO NORTHEAST,GPC,1
FOA,32.104043,-84.21043,Sumter,FO-GA-SW-AMERICUS,GPC,3
FOC,33.588034,-85.102431,Carroll,FO-GA-NW-CARROLL/HEARD/DOUGLAS,GPC,1
FOD,32.525295,-82.927444,Laurens,FO-GA-SW-PERRY,GPC,16
FOF,33.626323,-84.385825,Clayton,FO-GA-NW-CLAYTON/HENRY/SPALDING/BUTTS,GPC,1
FOG,33.974515,-84.05218,Gwinnett,FO-GA-NE-CUMMING,GPC,1
FOH,31.819048,-81.601671,Liberty,FO-GA-SE-HINESVILLE-BRUNSWICK,GPC,43
FOJ,33.49284,-84.33868,Clayton,FO-GA-NW-CLAYTON/HENRY/SPALDING/BUTTS,GPC,1
FOK,30.788908,-81.644372,Camden,FO-GA-SE-HINESVILLE-BRUNSWICK,GPC,33
FOL,33.56315,-86.895644,Jefferson,FO-AL-BIRMINGHAM NORTHWEST,APC,1
FOM,33.7005,-84.17973,DeKalb,FO-GA-NE-CONYERS,GPC,1
FON,34.728565,-83.377198,Habersham,FO-GA-NE-CORNELIA,GPC,1
FOP,34.507746,-83.543918,Habersham,FO-GA-NE-CORNELIA,GPC,1
FOR,32.363814,-89.469059,Scott,FO-MS-O-NORTH CENTRAL,MPC,6
FOS,33.915479,-84.489048,Cobb,FO-GA-NW-COBB,GPC,1
FOT,33.457179,-82.479236,McDuffie,FO-GA-SE-AUGUSTA 1,GPC,1
FOU,31.222184,-85.112918,,FO-SNC-FARLEY BLT HUB,APC,11
FOV,30.825141,-83.286983,Lowndes,FO-GA-SW-VALDOSTA,GPC,2
FOY,33.051093,-83.956093,Monroe,FO-GA-SW-MACON-WEST,GPC,1
FPK,33.626764,-84.389901,CLAYTON,FO-GA-NE-CONYERS,GPC,1
FPS,33.06708,-83.800256,Monroe,FO-GA-SW-MACON-EAST,GPC,1
FPV,33.138773,-81.765833,Burke,FO-GA-SE-AUGUSTA 1,GPC,1
FRA,32.607057,-85.096649,Lee,FO-GA-SW-COLUMBUS,SPC,1
FRE,42.298204,-89.61522,Stephenson,FO-SOGAS-IL REGIONS BLT HUB,SOGAS,118
FRF,31.329749,-85.731195,Dale,FO-AL-DOTHAN WEST,APC,11
FRG,30.675549,-82.677677,Echols,FO-GA-SW-VALDOSTA,GPC,119
FRH,30.500908,-87.910325,Baldwin,FO-AL-MOBILE SOUTHEAST,APC,6
FRK,33.2994,-85.1149,Heard,FO-GA-NW-CARROLL/HEARD/DOUGLAS,GPC,1
FRL,31.00634,-86.32819,Covington,FO-AL-DOTHAN WEST,APC,19
FRN,34.8098,-87.6825,Lauderdale,FO-AL-JASPER,SOLINC,1
FRO,32.600756,-84.91129,Muscogee,FO-GA-SW-COLUMBUS,GPC,1
FRP,33.624556,-84.385003,CLAYTON,FO-GA-NW-CLAYTON/HENRY/SPALDING/BUTTS,GPC,1
FRS,33.105675,-87.70035,Tuscaloosa,FO-AL-FAYETTE,APC,1
FSA,31.222184,-85.112918,,FO-SNC-FARLEY BLT HUB,APC,11
FSB,31.222184,-85.112918,,FO-SNC-FARLEY BLT HUB,APC,11
FSC,32.363814,-89.469059,Scott,FO-MS-O-NORTH CENTRAL,MPC,6
FSO,34.83076,-87.62405,Lauderdale,FO-AL-JASPER,APC,1
FSR,31.894289,-81.590406,Liberty,FO-GA-SE-SAVANNAH 3,GPC,43
FST,31.222184,-85.112918,,FO-SNC-FARLEY BLT HUB,APC,11
FSW,31.222184,-85.112918,,FO-SNC-FARLEY BLT HUB,APC,11
FTB,32.396944,-84.882389,Chattahoochee,FO-GA-SW-COLUMBUS,GPC,1
FTC,31.222184,-85.112918,,FO-SNC-FARLEY BLT HUB,APC,11
FTD,33.76361,-84.38194,Fulton,FO-GA-NE-METRO SOUTHEAST,GPC,1
FTK,33.834472,-84.254596,Dekalb,FO-GA-NE-METRO NORTHEAST,GPC,1
FTM,33.729733,-85.800863,Calhoun,FO-AL-GADSDEN,APC,1
FTN,33.518603,-86.812287,Jefferson,FO-APCCORP-APC CORP HQ BLT HUB,APC,1
FTO,33.76361,-84.38194,Fulton,FO-GA-NE-METRO SOUTHEAST,GPC,1
FTP,34.44298,-85.70158,DeKalb,FO-AL-GADSDEN,SOLINC,81
FTR,32.35658,-89.39822,Scott,FO-MS-O-NORTH CENTRAL,MPC,6
FTW,30.411337,-86.62451,Okaloosa,FO-FL-NEXTERA ENERGY,NextEra,6
FUB,31.222184,-85.112918,,FO-SNC-FARLEY BLT HUB,APC,11
FUN,33.723019,-84.586036,Fulton,FO-GA-NW-COWETA/FAYETTE/SOUTH FULTON,GPC,1
FVL,32.5999806,-83.9209389,,FO-GA-SW-MACON-WEST,GPC,1
FVM,30.638946,-86.972537,Santa Rosa,FO-FL-NEXTERA ENERGY,NextEra,6
FVS,32.503026,-83.881377,Peach,FO-GA-SW-MACON-WEST,GPC,1
FWB,30.412431,-86.62289,Okaloosa,FO-FL-NEXTERA ENERGY,NextEra,6
FWG,30.412431,-86.62289,Okaloosa,FO-FL-NEXTERA ENERGY,NextEra,6
FWL,30.7766528,-84.5225222,FOWLSTOWN,FO-GA-SW-BAINBRIDGE,GPC,30
FYC,33.724115,-87.81416,Fayette,FO-AL-FAYETTE,APC,1
FYT,33.70593,-87.82536,Fayette,FO-AL-FAYETTE,APC,1
G09,33.169456,-86.770154,Shelby,FO-AL-BIRMINGHAM SOUTH,APC,1
G16,33.15648,-86.761453,,FO-AL-BIRMINGHAM SOUTH,APC,1
G2A,33.175621,-86.774021,Shelby,FO-AL-BIRMINGHAM SOUTH,APC,1
G31,33.621445,-84.385525,Clayton,FO-GA-NW-CLAYTON/HENRY/SPALDING/BUTTS,GPC,1
G3A,33.173506,-86.772691,Shelby,FO-AL-BIRMINGHAM SOUTH,APC,1
G3B,33.173506,-86.772691,Shelby,FO-AL-BIRMINGHAM SOUTH,APC,1
G6I,33.175464,-86.774965,,FO-AL-BIRMINGHAM SOUTH,APC,1
G7A,33.171342,-86.769612,Shelby,FO-AL-BIRMINGHAM SOUTH,APC,1
G7B,33.171342,-86.769612,Shelby,FO-AL-BIRMINGHAM SOUTH,APC,1
G7C,33.171342,-86.769612,Shelby,FO-AL-BIRMINGHAM SOUTH,APC,1
G8A,33.171378,-86.770535,Shelby,FO-AL-BIRMINGHAM SOUTH,APC,1
G8B,33.171378,-86.770535,Shelby,FO-AL-BIRMINGHAM SOUTH,GPC,1
G9B,33.169456,-86.770154,Shelby,FO-AL-BIRMINGHAM SOUTH,APC,1
G9C,33.169456,-86.770154,Shelby,FO-AL-BIRMINGHAM SOUTH,APC,1
G9D,33.169456,-86.770154,Shelby,FO-AL-BIRMINGHAM SOUTH,APC,1
G9H,33.168844,-86.76963,Shelby,FO-AL-BIRMINGHAM SOUTH,APC,1
GAD,34.5201389,-83.9119167,GARLAND (GA),FO-GA-NE-CUMMING,GPC,1
GAI,34.280681,-83.855424,Hall,FO-GA-NE-GAINESVILLE,GPC,1
GAL,31.55925,-86.854194,Butler,FO-AL-MONTGOMERY WEST,APC,1
GAR,33.626305,-84.385793,Clayton,FO-GA-NW-CLAYTON/HENRY/SPALDING/BUTTS,GPC,1
GAT,30.44167,-84.28083,Leon,FO-FL-NEXTERA ENERGY,NextEra,120
GAU,30.393797,-88.646383,Jackson,FO-MS-O-SOUTH,MPC,6
GAY,32.980718,-83.573368,Jones,FO-GA-SW-MACON-EAST,GPC,1
GBA,36.059792,-79.863779,GUILFORD,FO-POWER SECURE LOCATIONS,SCS,121
GBD,36.059685,-79.861814,GUILFORD,FO-POWER SECURE LOCATIONS,SCS,121
GBO,32.7175,-87.58917,Hale,FO-AL-DEMOPOLIS,APC,122
GBP,30.412276,-87.221425,Escambia,FO-FL-FPL SERVICE DESK BLT HUB 1,NextEra,6
GBR,32.70414,-87.59354,Hale,FO-AL-DEMOPOLIS,APC,122
GBS,33.2565833,-82.5942778,,FO-GA-SE-AUGUSTA 1,GPC,123
GBT,33.157628,-86.760982,,FO-AL-BIRMINGHAM SOUTH,APC,1
GBZ,30.38581,-87.09406,Santa Rosa,FO-FL-NEXTERA ENERGY,NextEra,6
GCC,30.370806,-89.089342,Harrison,FO-MS-O-SOUTH CENTRAL,MPC,6
GCG,33.625117,-84.392166,Clayton,FO-GA-NW-CLAYTON/HENRY/SPALDING/BUTTS,GPC,1
GCH,33.687117,-86.825396,Jefferson,FO-AL-BIRMINGHAM NORTH,APC,1
GCQ,31.846558,-86.625985,Butler,FO-AL-MONTGOMERY WEST,APC,1
GCS,32.2327,-81.3697,Effingham,FO-GA-SE-SAVANNAH 2,GPC,5
GCT,32.601413,-87.779592,Greene,FO-AL-DEMOPOLIS,APC,88
GCV,30.973783,-85.494014,Jackson,FO-FL-NEXTERA ENERGY,SOLINC,11
GDG,33.99082,-86.077769,Etowah,FO-AL-ALBERTVILLE,APC,1
GDL,33.687193,-86.822913,Jefferson,FO-AL-BIRMINGHAM NORTH,APC,1
GDO,34.279613,-83.857403,Hall,FO-GA-NE-GAINESVILLE,GPC,1
GDS,34.01556,-86.01056,Etowah,FO-AL-GADSDEN,APC,1
GDT,33.244158,-84.268209,Spalding,FO-GA-NW-CLAYTON/HENRY/SPALDING/BUTTS,SOGAS,1
GE1,33.0662076,-80.0424042,Berkeley,FO-GA-SE-AUGUSTA 1,GPC,124
GE4,39.0524271,-77.5416097,Loudoun,FO-GA-SE-NATIONAL,GPC,125
GEC,33.626238,-84.390755,Clayton,FO-GA-NW-CLAYTON/HENRY/SPALDING/BUTTS,GPC,1
GEE,33.649,-83.978389,Rockdale,FO-GA-NE-CONYERS,GPC,1
GEI,32.80808,-88.29316,Sumter,FO-AL-FAYETTE,APC,126
GEL,41.88426,-88.029847,DuPage,FO-SOGAS-IL REGIONS BLT HUB,SOGAS,29
GEP,32.309605,-86.519651,Lowndes,FO-AL-MONTGOMERY WEST,APC,1
GFP,33.627073,-84.388964,Clayton,FO-GA-NW-CLAYTON/HENRY/SPALDING/BUTTS,GPC,1
GFS,33.624813,-84.389731,Clayton,FO-GA-NW-CLAYTON/HENRY/SPALDING/BUTTS,GPC,1
GGA,33.23673,-86.48112,Shelby,FO-AL-BIRMINGHAM EAST,APC,1
GGB,30.399636,-89.000786,Harrison,FO-MS-O-SOUTH CENTRAL,MPC,6
GGG,33.173506,-86.772691,Shelby,FO-AL-BIRMINGHAM SOUTH,APC,1
GGO,33.32301,-87.88668,,FO-AL-FAYETTE,APC,1
GGS,33.167983,-86.763968,Shelby,FO-AL-BIRMINGHAM SOUTH,APC,1
GGV,34.00022,-83.29009,CLARKE,FO-GA-NE-ATHENS EAST,GPC,1
GGZ,34.00022,-83.29009,CLARKE,FO-GA-NE-ATHENS EAST,GPC,1
GHB,33.158057,-86.761592,,FO-AL-BIRMINGHAM SOUTH,APC,1
GHQ,33.173803,-86.7665,Shelby,FO-AL-BIRMINGHAM SOUTH,APC,1
GID,32.491758,-84.919472,Muscogee,FO-GA-SW-COLUMBUS,GPC,1
GIN,33.9663806,-87.9674194,GUIN,FO-AL-JASPER,APC,1
GLA,34.8455,-83.4996,Rabun,FO-GA-NE-CORNELIA,GPC,1
GLC,33.9325889,-85.9035694,GLENCOE,FO-AL-GADSDEN,APC,1
GLE,31.917,-81.9259,Tattnall,FO-GA-SE-SAVANNAH 3,GPC,127
GLH,31.7961917,-86.4825389,GL HWY,FO-AL-EUFAULA,APC,1
GLN,31.930375,-81.918408,Tattnall,FO-GA-SE-SAVANNAH 3,GPC,127
GLT,31.880958,-88.318722,Choctaw,FO-AL-MOBILE NORTHWEST,APC,128
GMA,33.72664,-84.35737,Fulton,FO-GA-NE-METRO SOUTHEAST,GPC,1
GMG,33.619699,-84.386123,Clayton,FO-GA-NW-CLAYTON/HENRY/SPALDING/BUTTS,GPC,1
GML,33.173767,-86.768517,Shelby,FO-AL-BIRMINGHAM SOUTH,APC,1
GNJ,33.169456,-86.770154,Shelby,FO-AL-BIRMINGHAM SOUTH,APC,1
GNV,31.03167,-85.86305,Geneva,FO-AL-DOTHAN WEST,APC,11
GOA,32.609664,-85.080496,Harris,FO-GA-SW-COLUMBUS,GPC,1
GOC,33.962082,-84.042603,Gwinnett,FO-GA-NE-CUMMING,SOGAS,1
GOD,32.8474,-83.33947,Wilkinson,FO-GA-SW-MACON-EAST,GPC,1
GOH,33.550802,-83.208549,Greene,FO-GA-NE-ATHENS WEST,GPC,1
GOO,32.383639,-86.2446,Montgomery,FO-AL-MONTGOMERY EAST,APC,1
GPT,30.366525,-89.096889,Harrison,FO-MS-O-SOUTH CENTRAL,MPC,6
GR1,33.032547,-84.727878,Meriwether,FO-GA-SW-COLUMBUS,GPC,1
GRA,36.409095,-78.595254,Granville,FO-SPC-PLANT SUPPORT 3 BLT HUB,SPC,129
GRC,33.677732,-84.389071,Fulton,FO-GPCCORP-GEORGIA RESOURCE CTR BLT HUB,GPC,1
GRD,31.13122,-85.13346,Houston,FO-AL-DOTHAN EAST,APC,11
GRF,33.17241,-84.26077,Pike,FO-GA-NW-CLAYTON/HENRY/SPALDING/BUTTS,GPC,1
GRI,33.2552,-84.2886,Spalding,FO-GA-NW-CLAYTON/HENRY/SPALDING/BUTTS,GPC,1
GRL,34.833111,-118.457854,Kern,FO-SPC-PLANT SUPPORT 2 BLT HUB,SPC,130
GRM,31.83253,-82.49946,Appling,FO-GA-SE-BAXLEY,GPC,16
GRO,33.55732,-83.18807,Greene,FO-GA-NE-ATHENS WEST,GPC,1
GRP,36.926726,-97.666664,Grant,FO-SPC-PLANT SUPPORT 2 BLT HUB,SPC,131
GRR,33.542772,-83.183541,Greene,FO-GA-NE-ATHENS WEST,GPC,1
GRS,33.62513,-84.390551,Clayton,FO-GA-NW-CLAYTON/HENRY/SPALDING/BUTTS,GPC,1
GRT,36.926836,-97.696342,Grant,FO-SPC-PLANT SUPPORT 2 BLT HUB,SPC,131
GRV,31.8194,-86.6512,Butler,FO-AL-MONTGOMERY WEST,APC,1
GSA,33.724306,-84.356758,Fulton,FO-GA-NE-METRO SOUTHEAST,GPC,1
GSB,33.626066,-84.38983,Clayton,FO-GA-NW-CLAYTON/HENRY/SPALDING/BUTTS,GPC,1
GSC,33.515445,-86.820027,Jefferson,FO-AL-BIRMINGHAM DOWNTOWN NORTH,APC,1
GSE,32.080348,-81.09241,,FO-GA-SE-SAVANNAH 1,GPC,5
GSH,30.347528,-87.628863,Baldwin,FO-AL-MOBILE SOUTHEAST,APC,6
GSI,30.366826,-89.094057,Harrison,FO-MS-O-SOUTH CENTRAL,MPC,6
GSK,34.834109,-118.546929,,FO-SPC-PLANT SUPPORT 2 BLT HUB,SPC,130
GSP,33.643853,-87.194903,Walker,FO-AL-MILLER SP,APC,1
GSS,34.506324,-97.038375,MURRAY,FO-SPC-PLANT SUPPORT 1 BLT HUB,SPC,132
GST,33.1697,-86.76761,Shelby,FO-AL-BIRMINGHAM SOUTH,APC,1
GTC,30.437482,-89.03176,Harrison,FO-MS-O-SOUTH CENTRAL,MPC,6
GTI,33.8681,-83.6087,GRATIS,FO-GA-NE-ATHENS WEST,GPC,1
GTM,33.524806,-86.656906,Jefferson,FO-AL-BIRMINGHAM NORTHEAST,APC,1
GTR,34.014472,-85.974944,Etowah,FO-AL-GADSDEN,APC,1
GUN,34.33728,-86.2881,Marshall,FO-AL-ALBERTVILLE,SOLINC,1
GUT,30.386393,-88.655355,Jackson,FO-MS-O-SOUTH,MPC,6
GVH,31.714067,-87.771878,Clarke,FO-AL-MOBILE NORTHEAST,APC,62
GVM,30.38314,-89.098263,Harrison,FO-MS-O-SOUTH CENTRAL,MPC,6
GVW,33.47276,-82.16557,Columbia,FO-GA-SE-AUGUSTA 1,GPC,1
GWD,41.531309,-87.632586,Cook,FO-GA-SE-ILLINOIS-SOUTH,SOGAS,83
GWE,33.956605,-84.074564,Gwinnett,FO-GA-NE-CONYERS,SOGAS,1
GWH,30.383914,-89.09789,Harrison,FO-MS-O-SOUTH CENTRAL,MPC,6
GWI,33.94806,-84.12833,Gwinnett,FO-GA-NE-CONYERS,GPC,1
GWN,33.972985,-84.052459,Gwinnett,FO-GA-NE-CUMMING,GPC,1
GWO,33.97267,-84.05338,Gwinnett,FO-GA-NE-CUMMING,GPC,1
GWR,33.064392,-86.053762,Coosa,FO-AL-ASHLAND,APC,1
GWS,33.055719,-86.057727,Coosa,FO-AL-ASHLAND,APC,1
GWT,33.62695,-84.38611,Clayton,FO-GA-NW-CLAYTON/HENRY/SPALDING/BUTTS,GPC,1
GWY,44.27545,-105.5159,Campbell,FO-GA-SE-NATIONAL,SOGAS,133
GYS,33.624795,-84.390589,Clayton,FO-GA-NW-CLAYTON/HENRY/SPALDING/BUTTS,GPC,1
HA1,32.382254,-86.574787,Autauga,FO-AL-MONTGOMERY WEST,SPC,1
HA2,32.380912,-86.574804,Autauga,FO-AL-MONTGOMERY WEST,SPC,1
HAC,34.26975,-87.84054,Marion,FO-AL-JASPER,APC,1
HAD,32.6949,-85.149619,Lee,FO-AL-PHENIX CITY,APC,1
HAE,32.1769,-86.5794,Lowndes,FO-AL-MONTGOMERY WEST,APC,1
HAI,30.9964,-83.391123,Lowndes,FO-GA-SW-VALDOSTA,GPC,2
HAL,33.405228,-82.257994,Columbia,FO-GA-SE-AUGUSTA 1,GPC,1
HAM,34.25222,-85.34472,Floyd,Plant Bowen/Plant Hammond IT Analyst Contact,GPC,1
HAN,33.035525,-87.264297,Bibb,FO-AL-TUSCALOOSA,APC,1
HAO,37.69483,-77.441523,Hanover,FO-GA-SE-NATIONAL,SOGAS,134
HAP,34.6687,-86.7355,Madison,FO-AL-BIRMINGHAM NORTH,SOLINC,1
HAR,32.381139,-86.573735,Autauga,FO-AL-MONTGOMERY WEST,SPC,1
HAS,30.6363,-88.1284,Mobile,FO-AL-MOBILE SOUTHWEST,APC,6
HAT,34.318377,-82.947233,Hart,FO-GA-NE-ATHENS EAST,GPC,1
HAV,32.878305,-87.602963,Hale,FO-AL-DEMOPOLIS,APC,1
HAW,32.265172,-83.339297,Dodge,FO-GA-SW-PERRY,GPC,80
HAY,33.8937,-86.71722,Blount,FO-AL-BIRMINGHAM NORTH,APC,1
HAZ,31.857595,-82.585338,Jeff Davis,FO-GA-SE-BAXLEY,GPC,16
HBG,31.3483,-89.3231,Forrest,FO-MS-O-CENTRAL,MPC,6
HCA,34.298006,-85.298098,Floyd,FO-GA-NW-FLOYD & NORTH,GPC,1
HCD,34.253867,-83.845503,Hall,FO-GA-NE-GAINESVILLE,SOGAS,1
HCH,34.23598,-87.65136,Marion,FO-AL-JASPER,APC,1
HCQ,34.11791,-87.99202,Marion,FO-AL-JASPER,APC,1
HCY,30.194345,-85.630688,Bay,FO-FL-NEXTERA ENERGY,NextEra,135
HDL,31.335361,-85.332639,Henry,FO-AL-DOTHAN EAST,APC,11
HDS,33.395761,-84.170989,Henry,FO-GA-NW-CLAYTON/HENRY/SPALDING/BUTTS,GPC,1
HDT,32.279,-83.4925,Pulaski,FO-GA-SW-PERRY,SOLINC,80
HEA,30.715423,-88.121534,Mobile,FO-AL-MOBILE NORTHWEST,APC,6
HED,31.39805,-85.32885,Henry,FO-AL-DOTHAN EAST,APC,11
HEE,34.69348,-83.74241,White,FO-GA-NE-CORNELIA,GPC,1
HEF,33.623878,-85.576098,Cleburne,FO-AL-GADSDEN,APC,1
HEH,31.3458,-86.46254,Covington,FO-AL-DOTHAN WEST,APC,19
HEI,31.88583,-88.97972,Jasper,FO-MS-O-NORTH CENTRAL,MPC,6
HEL,33.2907,-86.84451,Shelby,FO-AL-BIRMINGHAM SOUTHWEST,APC,1
HEN,33.2744,-86.8656,Shelby,FO-AL-BIRMINGHAM SOUTHWEST,APC,1
HEP,33.32693,-82.08389,Richmond,FO-GA-SE-AUGUSTA 2,GPC,1
HET,34.7412,-86.6602,Madison,FO-AL-BIRMINGHAM NORTH,SOLINC,1
HEX,30.28075,-87.519517,Baldwin,FO-AL-MOBILE SOUTHEAST,APC,6
HFL,33.64468,-85.58772,Cleburne,FO-AL-GADSDEN,APC,1
HFS,33.161389,-84.044444,LaMar,FO-GA-SW-MACON-WEST,GPC,1
HGS,33.158,-84.8735,,FO-GA-SW-COLUMBUS,GPC,1
HH1,33.357383,-86.843609,Jefferson,FO-AL-BIRMINGHAM SOUTHWEST,APC,1
HHF,33.625863,-84.393319,Clayton,FO-GA-NW-CLAYTON/HENRY/SPALDING/BUTTS,GPC,1
HHK,37.787736,-82.819278,Johnson,FO-GA-SE-NATIONAL,SOGAS,136
HHQ,31.351218,-85.348985,Henry,FO-AL-DOTHAN EAST,APC,11
HIC,34.1795306,-84.417,HICKORY FLAT,FO-GA-NW-BARTOW/CHEROKEE & NORTH,GPC,1
HIG,33.753611,-84.465306,Fulton,FO-GA-NW-METRO SOUTHWEST,GPC,1
HIK,32.344444,-89.033056,NEWTON,FO-MS-O-NORTH CENTRAL,MPC,6
HIL,33.092,-87.5602,Tuscaloosa,FO-AL-DEMOPOLIS,APC,1
HIN,31.818903,-81.602572,Liberty,FO-GA-SE-HINESVILLE-BRUNSWICK,GPC,43
HIP,31.71469,-82.381498,Appling,FO-GA-SE-BAXLEY,GPC,16
HIT,33.5027,-86.7893,Jefferson,FO-AL-BIRMINGHAM DOWNTOWN SOUTH,APC,1
HIX,31.0709111,-82.0129389,HICKOX,FO-GA-SE-WAYCROSS,GPC,137
HJA,33.641299,-84.445998,Fulton,FO-GA-NW-METRO SOUTHWEST,GPC,1
HLB,34.6572,-87.1585,Lawrence,FO-AL-BIRMINGHAM NORTH,SOLINC,1
HLD,33.255,-87.44945,Tuscaloosa,FO-AL-TUSCALOOSA,APC,1
HLL,34.444155,-86.898033,Morgan,FO-AL-BIRMINGHAM NORTH,SOLINC,1
HLM,33.78417,-86.05139,Calhoun,FO-AL-ALBERTVILLE,APC,1
HLO,33.25778,-85.61694,Randolph,FO-AL-ASHLAND,APC,1
HLV,34.226757,-87.618062,Winston,FO-AL-JASPER,APC,1
HMF,31.347122,-89.3183,Forrest,FO-MS-O-CENTRAL,MPC,6
HML,32.742825,-84.8726611,,FO-GA-SW-COLUMBUS,GPC,1
HMM,34.25464,-85.33937,Floyd,FO-GA-NW-FLOYD & NORTH,GPC,1
HMR,34.3431944,-83.4661111,HOMER,FO-GA-NE-GAINESVILLE,GPC,1
HMS,31.929916,-82.344857,Appling,FO-GA-SE-BAXLEY,GPC,16
HMV,31.03639,-82.75083,Clinch,FO-GA-SE-WAYCROSS,GPC,138
HMW,33.403143,-84.227146,Henry,FO-GA-NW-CLAYTON/HENRY/SPALDING/BUTTS,GPC,1
HNP,31.932656,-82.346239,,FO-SNC-HATCH BLT HUB,GPC,16
HNS,31.819039,-81.601639,Liberty,FO-GA-SE-HINESVILLE-BRUNSWICK,GPC,43
HOB,34.016243,-84.329385,Fulton,FO-GA-NE-CUMMING,GPC,1
HOD,34.3107,-87.937,Marion,FO-AL-JASPER,APC,1
HOG,34.152545,-84.887581,Bartow,FO-GA-NW-BARTOW/CHEROKEE & NORTH,GPC,1
HOL,33.233355,-87.472892,Tuscaloosa,FO-AL-TUSCALOOSA,APC,1
HOM,31.042118,-82.723029,Clinch,FO-GA-SE-WAYCROSS,GPC,138
HOO,31.205544,-82.148122,Brantley,FO-GA-SE-WAYCROSS,GPC,42
HOS,34.175339,-84.503561,Cherokee,FO-GA-NW-BARTOW/CHEROKEE & NORTH,GPC,1
HPE,31.695433,-89.44075,Covington,FO-MS-O-CENTRAL,MPC,6
HPR,33.34972,-86.48667,Shelby,FO-AL-BIRMINGHAM EAST,APC,1
HPT,34.64115,-86.47145,Madison,FO-AL-ALBERTVILLE,SOLINC,1
HRD,33.257665,-85.621219,Randolph,FO-AL-ASHLAND,APC,1
HRS,33.622716,-84.386544,Clayton,FO-GA-NW-CLAYTON/HENRY/SPALDING/BUTTS,GPC,1
HRT,34.325398,-82.966561,Hart,FO-GA-NE-ATHENS EAST,GPC,1
HSC,31.347251,-89.325221,Forrest,FO-MS-O-CENTRAL,MPC,6
HSO,34.74124,-86.66094,Madison,FO-AL-BIRMINGHAM NORTH,SCS,1
HTA,36.228087,-119.803037,Kings,FO-SPC-PLANT SUPPORT 2 BLT HUB,SPC,139
HTC,32.8047,-86.4464,Chilton,FO-AL-MONTGOMERY EAST,APC,1
HTF,31.093477,-85.6297,Geneva,FO-AL-DOTHAN WEST,APC,11
HTG,31.3533,-89.4431,Forrest,FO-MS-O-CENTRAL,MPC,6
HTI,32.094611,-81.090361,Chatham,FO-GA-SE-SAVANNAH 1,GPC,5
HTL,34.8067,-86.5794,Madison,FO-AL-BIRMINGHAM NORTH,SOLINC,1
HUC,33.450184,-87.009932,Jefferson,FO-AL-BIRMINGHAM NORTHWEST,APC,1
HUD,40.583084,-88.943562,McLean,FO-SOGAS-IL REGIONS BLT HUB,SOGAS,44
HUE,33.45195,-86.97056,Jefferson,FO-AL-BIRMINGHAM NORTHWEST,APC,1
HUF,33.60572,-86.69009,Jefferson,FO-AL-BIRMINGHAM NORTHEAST,APC,1
HUL,34.0432222,-83.2863611,HULL,FO-GA-NE-ATHENS EAST,GPC,1
HUN,32.0,-81.1244722,HUNTER AAF,FO-GA-SE-SAVANNAH 3,GPC,5
HUR,30.661306,-88.490806,Jackson,FO-MS-O-SOUTH,MPC,6
HUT,32.248537,-85.428237,Russell,FO-AL-EUFAULA,APC,140
HVC,31.93127,-82.34955,Appling,FO-GA-SE-BAXLEY,GPC,16
HVM,31.34611,-89.32861,Forrest,FO-MS-O-CENTRAL,MPC,6
HVR,33.357383,-86.843609,Jefferson,FO-AL-BIRMINGHAM SOUTHWEST,APC,1
HWO,33.480507,-86.790174,Jefferson,FO-AL-BIRMINGHAM DOWNTOWN SOUTH,APC,1
HYB,31.838619,-87.3608,WILCOX,FO-AL-MOBILE NORTHEAST,APC,62
HYV,34.2407889,-87.6307611,HALEYVILLE,FO-AL-JASPER,APC,1
HZL,34.9336111,-86.5741306,,FO-AL-BIRMINGHAM NORTH,SOLINC,1
ICH,30.510089,-88.227704,Mobile,FO-AL-SOUTH-MOBILE BLT HUB,APC,6
IDR,41.802548,-88.094949,DuPage,FO-GA-SE-ILLINOIS-SOUTH,SCS,29
INC,33.777575,-84.389651,Fulton,FO-GA-NE-METRO NORTHEAST,GPC,1
INL,42.367969,-88.139042,Lake,FO-GA-SE-ILLINOIS-NORTH,SOGAS,141
INP,33.88374,-84.46416,Cobb,FO-GA-NW-METRO NORTHWEST,GPC,1
INV,33.42627,-86.6875,Shelby,FO-AL-BIRMINGHAM NORTHEAST,APC,1
IRN,33.532903,-86.687434,Jefferson,FO-AL-BIRMINGHAM NORTHEAST,APC,1
IRW,31.6354722,-83.3771111,IRWINVILLE,FO-GA-SE-WAYCROSS,GPC,114
ISB,32.8127778,-86.7694444,ISABELLA,FO-AL-MONTGOMERY EAST,APC,1
ISL,30.24621,-87.6978,Baldwin,FO-AL-MOBILE SOUTHEAST,APC,6
JAC,33.797988,-85.773241,Calhoun,FO-AL-GADSDEN,APC,1
JAM,32.9531,-83.45048,Jones,FO-GA-SW-MACON-EAST,GPC,1
JAO,31.6064,-81.8869,Wayne,FO-GA-SE-HINESVILLE-BRUNSWICK,GPC,42
JAS,33.290539,-84.034692,Butts,FO-GA-NE-CONYERS,GPC,1
JAX,33.79528,-85.76056,Calhoun,FO-AL-GADSDEN,APC,1
JBO,33.852195,-87.304705,,FO-AL-MILLER SP,APC,1
JCC,37.206059,-76.608083,James City,FO-GA-SE-NATIONAL,SOGAS,142
JCH,31.520127,-87.891361,Clarke,FO-AL-MOBILE NORTHEAST,APC,143
JCQ,33.8536,-87.3061,Walker,FO-AL-MILLER SP,APC,1
JDO,33.49284,-84.33868,Clayton,FO-GA-NW-CLAYTON/HENRY/SPALDING/BUTTS,GPC,1
JEF,34.148052,-83.606917,Jackson,FO-GA-NE-GAINESVILLE,GPC,1
JEK,31.049841,-81.421384,Glynn,FO-GA-SE-HINESVILLE-BRUNSWICK,GPC,33
JES,31.56917,-81.89694,Wayne,FO-GA-SE-HINESVILLE-BRUNSWICK,GPC,42
JEU,31.6226,-81.9005,Wayne,FO-GA-SE-HINESVILLE-BRUNSWICK,GPC,42
JEW,33.2955361,-82.801325,JEWELL,FO-GA-SE-AUGUSTA 1,GPC,1
JFS,34.11138,-83.58606,Jackson,FO-GA-NE-GAINESVILLE,GPC,1
JHT,33.81772,-87.230433,Walker,FO-AL-MILLER SP,APC,1
JIC,31.024001,-89.034701,Perry,FO-MS-O-SOUTHWEST,MPC,144
JJJ,33.518603,-86.812287,Jefferson,FO-APCCORP-APC CORP HQ BLT HUB,APC,1
JKL,33.30955,-83.8218111,,FO-GA-NE-CONYERS,GPC,1
JKV,31.7671917,-82.9792833,JACKSONVILLE (GA),FO-GA-SE-BAXLEY,GPC,145
JML,33.060148,-83.806694,Monroe,FO-GA-SW-MACON-WEST,GPC,1
JOC,34.051015,-84.172021,Fulton,FO-GA-NE-CUMMING,GPC,1
JOF,33.52222,-84.35611,Clayton,FO-GA-NW-CLAYTON/HENRY/SPALDING/BUTTS,GPC,1
JOH,33.49284,-84.33868,Clayton,FO-GA-NW-CLAYTON/HENRY/SPALDING/BUTTS,GPC,1
JOL,41.521296,-88.003531,Will,FO-SOGAS-IL REGIONS BLT HUB,SOGAS,146
JON,33.501753,-84.343937,Clayton,FO-GA-NW-CLAYTON/HENRY/SPALDING/BUTTS,GPC,1
JOR,32.637003,-86.240269,Elmore,FO-AL-MONTGOMERY EAST,APC,1
JOS,34.7814,-85.5028,Dade,FO-GA-NW-FLOYD & NORTH,GPC,1
JPE,34.45058,-84.50552,Pickens,FO-GA-NW-BARTOW/CHEROKEE & NORTH,GPC,1
JRE,33.83034,-87.27782,Walker,FO-AL-MILLER SP,APC,1
JSC,31.610165,-81.888932,Wayne,FO-GA-SE-HINESVILLE-BRUNSWICK,SOGAS,42
JSE,33.847649,-87.282307,Walker,FO-AL-MILLER SP,APC,1
JSP,33.833254,-87.275707,Walker,FO-AL-MILLER SP,APC,1
JSR,33.596859,-84.382469,Clayton,FO-GA-NW-CLAYTON/HENRY/SPALDING/BUTTS,GPC,1
JST,32.38056,-86.30611,Montgomery,FO-AL-MONTGOMERY EAST,APC,1
JUN,32.571297,-84.440206,Talbot,FO-GA-SW-MACON-WEST,GPC,57
JXL,30.3943,-81.55721,Duval,FO-GA-SE-NATIONAL,SOGAS,147
KAH,33.227,-86.3599,Talladega,FO-AL-ASHLAND,APC,1
KAN,41.085565,-87.872872,Kankakee,FO-SOGAS-IL REGIONS BLT HUB,SOGAS,148
KAO,30.79218,-81.64234,Camden,FO-GA-SE-HINESVILLE-BRUNSWICK,GPC,33
KAY,36.933959,-97.138524,Kay,FO-SPC-PLANT SUPPORT 2 BLT HUB,SPC,149
KDO,32.65237,-88.75746,Lauderdale,Plant Ratcliffe IT Analyst Contact,MPC,6
KEL,33.306819,-87.298411,Tuscaloosa,FO-AL-TUSCALOOSA,APC,1
KEN,34.022208,-84.59449,Cobb,FO-GA-NW-COBB,GPC,1
KEW,32.4436,-88.4154,Lauderdale,FO-MS-O-NORTH,MPC,6
KEY,32.817332,-83.674155,Bibb,FO-GA-SW-MACON-EAST,GPC,1
KGB,30.82792,-81.55613,Camden,FO-GA-SE-HINESVILLE-BRUNSWICK,GPC,33
KGL,30.79218,-81.64234,Camden,FO-GA-SE-HINESVILLE-BRUNSWICK,GPC,33
KIA,32.89755,-85.13299,Troup,FO-GA-SW-COLUMBUS,GPC,1
KIL,34.8662,-87.53051,Lauderdale,FO-AL-JASPER,SOLINC,1
KIN,31.1422,-81.3816,Glynn,FO-GA-SE-HINESVILLE-BRUNSWICK,GPC,33
KIT,32.699572,-82.522972,Johnson,FO-GA-SE-AUGUSTA 2,GPC,45
KLC,32.65237,-88.75746,Lauderdale,Plant Ratcliffe IT Analyst Contact,MPC,6
KLL,32.9965611,-86.0764944,,FO-AL-ASHLAND,APC,1
KLY,33.5522167,-84.1282389,KELLEYTOWN,FO-GA-NW-CLAYTON/HENRY/SPALDING/BUTTS,GPC,1
KNG,34.21039,-85.04576,Floyd,FO-GA-NW-FLOYD & NORTH,GPC,1
KNO,32.9934,-87.7913,Greene,FO-AL-DEMOPOLIS,APC,1
KNT,37.511622,-77.101494,Charles City,FO-GA-SE-NATIONAL,SOGAS,65
KRK,33.757433,-84.329774,DeKalb,FO-GA-NE-METRO SOUTHEAST,GPC,1
KRR,33.611541,-84.388298,Clayton,FO-GA-NW-CLAYTON/HENRY/SPALDING/BUTTS,GPC,1
KSY,31.30216,-85.34871,Houston,FO-AL-DOTHAN EAST,APC,11
KTF,33.640477,-84.127856,DeKalb,FO-GA-NE-CONYERS,GPC,1
KTH,32.4824306,-83.6187889,,FO-GA-SW-PERRY,GPC,1
KVT,30.38397,-89.09779,Harrison,FO-MS-O-SOUTH CENTRAL,MPC,6
KWD,32.05583,-81.12078,Chatham,FO-GA-SE-SAVANNAH 1,GPC,5
LAA,32.4961667,-88.5273611,,FO-MS-O-NORTH,MPC,6
LAC,34.31874,-86.90775,Morgan,FO-AL-BIRMINGHAM NORTH,SOLINC,1
LAD,31.062931,-83.072442,Lanier,FO-GA-SW-VALDOSTA,GPC,150
LAF,32.916528,-85.400418,Chambers,FO-AL-ASHLAND,APC,1
LAG,33.041461,-85.008306,Troup,FO-GA-SW-COLUMBUS,GPC,1
LAI,34.4528,-83.1107,Franklin,FO-GA-NE-GAINESVILLE,GPC,1
LAK,40.691672,-88.91862,McLean,FO-GA-SE-ILLINOIS-SOUTH,SOGAS,44
LAL,33.904761,-84.000522,Gwinnett,FO-GA-NE-CONYERS,GPC,1
LAM,32.71631,-101.921598,Dawson,FO-SPC-PLANT SUPPORT 1 BLT HUB,SPC,151
LAN,32.81414,-85.16841,Harris,FO-GA-SW-COLUMBUS,GPC,1
LAR,33.9867,-84.0567,Gwinnett,FO-GA-NE-CUMMING,GPC,1
LAU,31.69299,-89.12994,Jones,FO-MS-O-NORTH CENTRAL,MPC,6
LAV,33.9575,-83.994,Gwinnett,FO-GA-NE-CONYERS,GPC,1
LAW,38.893738,-77.020512,District of Columbia,FO-GA-SE-NATIONAL,SCS,24
LAY,38.068116,-77.520492,Caroline,FO-GA-SE-NATIONAL,SOGAS,152
LCD,30.9369444,-88.5822222,,FO-MS-O-CENTRAL,MPC,153
LCF,33.9136111,-86.6201306,LOCUST FORK,FO-AL-BIRMINGHAM NORTH,APC,1
LCH,32.57389,-88.21,Sumter,FO-AL-DEMOPOLIS,APC,6
LCO,33.524605,-86.580881,Jefferson,FO-AL-BIRMINGHAM EAST,APC,1
LCS,30.927878,-88.591256,George,FO-MS-O-CENTRAL,MPC,153
LDA,32.469969,-85.097527,Russell,FO-AL-PHENIX CITY,APC,1
LDN,32.30523,-87.79777,Marengo,FO-AL-DEMOPOLIS,APC,62
LDV,34.46955,-84.60775,LUDVILLE,FO-GA-NW-BARTOW/CHEROKEE & NORTH,GPC,1
LDY,33.51463,-86.8217,Jefferson,FO-AL-BIRMINGHAM DOWNTOWN NORTH,APC,1
LEB,34.36289,-85.8281,DeKalb,FO-AL-GADSDEN,SOLINC,81
LEE,33.5556,-86.5675,Jefferson,FO-AL-BIRMINGHAM EAST,APC,1
LEH,33.613118,-82.297495,Columbia,FO-GA-SE-AUGUSTA 1,GPC,1
LEK,31.18099,-88.57297,Greene,FO-MS-O-CENTRAL,MPC,153
LEM,32.758153,-84.217378,Upson,FO-GA-SW-MACON-WEST,GPC,154
LEN,31.296034,-83.484682,Cook,FO-GA-SW-VALDOSTA,GPC,13
LES,31.769986,-84.152745,Lee,FO-GA-SW-BAINBRIDGE,GPC,12
LET,32.0793,-86.40877,Montgomery,FO-AL-MONTGOMERY WEST,APC,1
LEX,33.805843,-83.159156,Oglethorpe,FO-GA-NE-ATHENS EAST,GPC,1
LFS,33.626064,-84.389843,Clayton,FO-GA-NW-CLAYTON/HENRY/SPALDING/BUTTS,GPC,1
LFY,34.748608,-85.320305,Walker,FO-GA-NW-FLOYD & NORTH,GPC,1
LGH,34.69854,-87.53275,Colbert,FO-AL-JASPER,SOLINC,1
LGM,41.806795,-87.860217,Cook,FO-GA-SE-ILLINOIS-SOUTH,SOGAS,29
LHG,32.65292,-86.739236,AUTAUGA,FO-AL-MONTGOMERY WEST,APC,1
LHL,35.622802,-119.857878,Kern,FO-SPC-PLANT SUPPORT 2 BLT HUB,SPC,41
LIB,33.4909,-86.7032,Jefferson,FO-AL-BIRMINGHAM NORTHEAST,APC,1
LIC,33.742389,-82.520861,Lincoln,FO-GA-SE-AUGUSTA 1,GPC,22
LIE,33.30838,-85.72196,Clay,FO-AL-ASHLAND,APC,1
LIL,33.8904,-84.1458,Gwinnett,FO-GA-NE-CONYERS,GPC,1
LIN,33.797025,-82.477144,Lincoln,FO-GA-SE-AUGUSTA 1,GPC,22
LIV,32.583037,-88.187245,Sumter,FO-AL-DEMOPOLIS,APC,6
LKE,32.0079722,-85.1159444,LAKEPOINT,FO-AL-EUFAULA,APC,1
LKP,30.702008,-83.114852,Echols,FO-GA-SW-VALDOSTA,GPC,155
LKV,31.15258,-88.552561,Greene,FO-MS-O-CENTRAL,MPC,153
LKY,37.540173,-82.778138,Floyd,FO-GA-SE-NATIONAL,SOGAS,156
LLA,34.379458,-83.652711,Banks,FO-GA-NE-GAINESVILLE,GPC,1
LLD,33.405457,-86.914134,Jefferson,FO-AL-BIRMINGHAM SOUTHWEST,APC,1
LLN,31.6266667,-89.5563889,,FO-MS-O-CENTRAL,MPC,6
LLQ,33.791271,-84.623256,Douglas,FO-GA-NW-PAULDING/POLK/HARALSON,GPC,1
LM1,33.626841,-84.3952,Clayton,FO-GA-NW-CLAYTON/HENRY/SPALDING/BUTTS,GPC,1
LM2,33.627134,-84.396696,Clayton,FO-GA-NW-CLAYTON/HENRY/SPALDING/BUTTS,GPC,1
LM3,33.625724,-84.387821,Clayton,FO-GA-NW-CLAYTON/HENRY/SPALDING/BUTTS,GPC,1
LM4,33.62695,-84.38834,Clayton,FO-GA-NW-CLAYTON/HENRY/SPALDING/BUTTS,GPC,1
LM5,33.624572,-84.386458,Clayton,FO-GA-NW-CLAYTON/HENRY/SPALDING/BUTTS,GPC,1
LMD,33.42556,-86.33889,Saint Clair,FO-AL-ASHLAND,APC,1
LMO,33.624599,-84.387521,Clayton,FO-GA-NW-CLAYTON/HENRY/SPALDING/BUTTS,GPC,1
LMP,32.055272,-84.802642,Stewart,FO-GA-SW-AMERICUS,GPC,1
LND,32.3221,-87.7942,Marengo,FO-AL-DEMOPOLIS,APC,62
LNS,33.625412,-84.392155,Clayton,FO-GA-NW-CLAYTON/HENRY/SPALDING/BUTTS,GPC,1
LOA,32.511476,-85.5886,Macon,FO-AL-PHENIX CITY,APC,1
LOC,33.3548,-84.1212,Henry,FO-GA-NW-CLAYTON/HENRY/SPALDING/BUTTS,GPC,1
LOF,32.191744,-85.051122,Barbour,FO-AL-EUFAULA,APC,1
LOG,33.833056,-83.889722,Walton,FO-GA-NE-ATHENS WEST,GPC,1
LOK,33.421531,-87.261925,JEFFERSON,FO-AL-BIRMINGHAM NORTHWEST,APC,1
LON,31.7779306,-83.4945167,REBECCA,FO-GA-SE-WAYCROSS,GPC,13
LOU,33.0135,-82.3977,Jefferson,FO-GA-SE-AUGUSTA 2,GPC,45
LOV,33.449203,-84.323808,Clayton,FO-GA-NW-CLAYTON/HENRY/SPALDING/BUTTS,GPC,1
LOW,32.2651,-86.62,Lowndes,FO-AL-MONTGOMERY WEST,APC,1
LRB,34.749236,-83.464732,RABUN,FO-GA-NE-CORNELIA,GPC,1
LRH,31.68954,-89.101578,Jones,FO-MS-O-NORTH CENTRAL,MPC,6
LRL,30.95405,-86.44963,Okaloosa,FO-AL-DOTHAN WEST,SOLINC,19
LRY,31.61275,-88.3119306,MILLRY,FO-AL-MOBILE NORTHWEST,APC,157
LSB,33.625054,-84.387102,Clayton,FO-GA-NW-CLAYTON/HENRY/SPALDING/BUTTS,GPC,1
LSC,31.689103,-89.137195,Jones,FO-MS-O-NORTH CENTRAL,MPC,6
LSF,33.001134,-85.011959,Troup,FO-GA-SW-COLUMBUS,GPC,1
LSS,40.638146,-88.841475,McLean,FO-GA-SE-ILLINOIS-SOUTH,SOGAS,44
LST,33.8675,-84.19334,DeKalb,FO-GA-NE-CONYERS,GPC,1
LUB,31.9565,-82.7118,Telfair,FO-GA-SE-BAXLEY,GPC,16
LUC,30.920455,-88.592758,George,FO-MS-O-CENTRAL,MPC,153
LUD,31.721531,-81.741186,Long,FO-GA-SE-HINESVILLE-BRUNSWICK,GPC,158
LUF,30.9964,-86.0997,Geneva,FO-AL-DOTHAN WEST,APC,11
LUL,34.37763,-83.6596,Banks,FO-GA-NE-GAINESVILLE,GPC,1
LUM,31.0017,-89.4533,LaMar,FO-MS-O-SOUTHWEST,MPC,6
LUR,31.002981,-89.423461,,FO-MS-O-SOUTHWEST,MPC,6
LUS,31.7892472,-85.5578639,,FO-AL-EUFAULA,APC,71
LUT,33.20796,-84.76022,Meriwether,FO-GA-SW-COLUMBUS,GPC,1
LUV,31.706183,-86.241556,Crenshaw,FO-AL-EUFAULA,APC,113
LVS,32.60194,-88.1625,Sumter,FO-AL-DEMOPOLIS,APC,6
LVT,32.6432944,-82.7847306,LOVETT,FO-GA-SE-AUGUSTA 2,GPC,16
LWD,33.252319,-85.60245,RANDOLPH,FO-AL-ASHLAND,APC,1
LWS,34.8573056,-86.4279167,,FO-AL-ALBERTVILLE,SOLINC,1
LY1,33.188001,-86.774331,Shelby,FO-AL-BIRMINGHAM SOUTH,APC,1
LYD,32.954039,-86.537792,CHILTON,FO-AL-BIRMINGHAM SOUTH,APC,1
LYN,30.51177,-89.10433,Harrison,FO-MS-O-SOUTHEAST,MPC,6
LYO,32.2165,-82.3194,Toombs,FO-GA-SE-BAXLEY,GPC,16
MAA,32.1144889,-87.6553611,MAGNOLIA,FO-AL-MOBILE NORTHEAST,APC,62
MAB,33.818309,-84.570958,Cobb,FO-GA-NW-COBB,GPC,1
MAE,34.020209,-84.595576,Cobb,FO-GA-NW-COBB,SOGAS,1
MAG,30.427816,-87.79941,Baldwin,FO-AL-MOBILE SOUTHEAST,APC,6
MAH,32.858529,-84.622587,Meriwether,FO-GA-SW-COLUMBUS,GPC,1
MAI,32.44063,-87.2829,Dallas,FO-AL-DEMOPOLIS,APC,1
MAL,34.080556,-83.9852,Gwinnett,FO-GA-NE-CUMMING,GPC,1
MAN,32.85805,-84.620851,Meriwether,FO-GA-SW-COLUMBUS,GPC,1
MAO,32.4465278,-88.6325556,,FO-MS-O-NORTH,MPC,6
MAP,32.7836,-86.8989,Chilton,FO-AL-MONTGOMERY WEST,APC,1
MAR,33.9513,-84.5322,Cobb,FO-GA-NW-COBB,GPC,1
MAS,33.43823,-84.7109,Coweta,FO-GA-NW-COWETA/FAYETTE/SOUTH FULTON,GPC,1
MAT,34.76558,-83.416904,Rabun,FO-GA-NE-CORNELIA,GPC,1
MAV,30.65306,-88.095,Mobile,FO-AL-SOUTH-MOBILE BLT HUB,APC,6
MAY,30.73361,-81.54667,Camden,FO-GA-SE-HINESVILLE-BRUNSWICK,GPC,33
MBB,32.801903,-84.661969,TALBOT,FO-GA-SW-COLUMBUS,GPC,1
MBC,32.37778,-86.29639,Montgomery,FO-AL-MONTGOMERY EAST,APC,1
MBH,34.421675,-84.3384417,MARBLE HILL,FO-GA-NW-BARTOW/CHEROKEE & NORTH,GPC,1
MBS,30.6795,-87.8399,Baldwin,FO-AL-MOBILE SOUTHEAST,APC,6
MBZ,33.75463,-84.402055,,FO-GA-NW-METRO NORTHWEST,GPC,1
MC1,30.69286,-88.03915,Mobile,FO-AL-MOBILE SOUTHEAST,APC,6
MCB,33.23717,-81.92074,Burke,FO-GA-SE-AUGUSTA 2,GPC,1
MCC,30.371149,-89.089288,Harrison,FO-MS-O-SOUTH CENTRAL,MPC,6
MCE,32.024319,-82.895504,Telfair,FO-GA-SE-BAXLEY,GPC,16
MCH,31.53194,-87.31389,Monroe,FO-AL-SOUTH-MOBILE BLT HUB,APC,1
MCI,32.356052,-81.169106,Effingham,FO-GA-SE-SAVANNAH 2,GPC,5
MCK,31.50239,-86.70513,Conecuh,FO-AL-MONTGOMERY WEST,APC,1
MCL,31.217,-89.1825,,FO-MS-O-CENTRAL,MPC,6
MCM,31.213901,-81.546374,Glynn,FO-GA-SE-HINESVILLE-BRUNSWICK,GPC,33
MCO,30.67859,-88.190078,Mobile,FO-AL-SOUTH-MOBILE BLT HUB,APC,6
MCP,32.351994,-81.180892,Effingham,FO-GA-SE-SAVANNAH 2,GPC,5
MCQ,33.10416,-86.84249,Shelby,FO-AL-BIRMINGHAM SOUTH,APC,1
MCS,31.559301,-84.092668,Dougherty,FO-GA-SW-BAINBRIDGE,GPC,12
MCT,32.356052,-81.169106,Effingham,FO-GA-SE-SAVANNAH 2,GPC,5
MCU,33.4644,-84.1591,Henry,FO-GA-NW-CLAYTON/HENRY/SPALDING/BUTTS,GPC,1
MCY,32.356111,-81.172657,Effingham,FO-GA-SE-SAVANNAH 2,GPC,5
MDC,33.173843,-86.766618,Shelby,FO-AL-BIRMINGHAM SOUTH,APC,1
MDD,31.352173,-85.545503,Dale,FO-AL-DOTHAN WEST,APC,11
MDN,32.367296,-88.703056,Lauderdale,FO-MS-O-NORTH,MPC,6
MDS,33.781117,-84.364492,Fulton,FO-GA-NE-METRO NORTHEAST,GPC,1
MDT,30.694584,-88.042835,Mobile,FO-AL-SOUTH-MOBILE BLT HUB,APC,6
MDY,30.9742639,-83.2185306,MOODY AFB,FO-GA-SW-VALDOSTA,GPC,2
MEA,33.91058,-84.43343,Fulton,FO-GA-NW-COBB,GPC,1
MED,30.367928,-89.092464,Harrison,FO-MS-O-SOUTH CENTRAL,MPC,6
MEE,33.70055,-84.17445,DeKalb,FO-GA-NE-CONYERS,GPC,1
MEL,32.1567,-81.3689,Effingham,FO-GA-SE-SAVANNAH 2,GPC,5
MEM,35.09195,-90.00311,Shelby,FO-GA-SE-NATIONAL,SNC,159
MEN,34.517927,-85.49205,Chattooga,FO-GA-NW-FLOYD & NORTH,GPC,1
MEO,33.7802,-84.2364,DeKalb,FO-GA-NE-CONYERS,GPC,1
MER,32.323739,-82.184143,Candler,FO-GA-SE-BAXLEY,GPC,160
MFB,34.325734,-84.327727,Cherokee,FO-GA-NW-BARTOW/CHEROKEE & NORTH,GPC,1
MFD,30.372159,-89.09683,Harrison,FO-MS-O-SOUTH CENTRAL,MPC,6
MFO,32.816656,-83.673763,Bibb,FO-GA-SW-MACON-EAST,GPC,1
MGN,31.531331,-84.592144,Calhoun,FO-GA-SW-BAINBRIDGE,GPC,161
MGP,32.403167,-86.22905,Montgomery,FO-AL-MONTGOMERY EAST,APC,1
MGR,32.376114,-86.299644,Montgomery,FO-AL-MONTGOMERY EAST,APC,1
MGT,33.45406,-82.06544,Richmond,FO-GA-SE-AUGUSTA 2,GPC,1
MH1,33.518603,-86.812287,Jefferson,FO-AL-BIRMINGHAM DOWNTOWN NORTH,APC,1
MH2,33.518603,-86.812287,Jefferson,FO-AL-BIRMINGHAM DOWNTOWN NORTH,APC,1
MH3,33.518603,-86.812287,Jefferson,FO-AL-BIRMINGHAM DOWNTOWN NORTH,APC,1
MH4,33.518603,-86.812287,Jefferson,FO-AL-BIRMINGHAM DOWNTOWN NORTH,APC,1
MH5,33.518603,-86.812287,Jefferson,FO-AL-BIRMINGHAM DOWNTOWN NORTH,APC,1
MH6,33.518603,-86.812287,Jefferson,FO-AL-BIRMINGHAM DOWNTOWN NORTH,APC,1
MHQ,33.5631,-83.4836,Morgan,FO-GA-NE-ATHENS WEST,GPC,1
MIA,32.023433,-83.081386,Dodge,FO-GA-SE-BAXLEY,GPC,162
MIB,32.46306,-86.38861,Elmore,FO-AL-MONTGOMERY EAST,APC,1
MID,32.848931,-82.220722,Burke,FO-GA-SE-AUGUSTA 2,GPC,45
MIE,33.077384,-83.226502,Baldwin,FO-GA-SW-MACON-EAST,SOGAS,1
MIN,32.8177,-81.9809,Jenkins,FO-GA-SE-AUGUSTA 2,GPC,107
MIP,33.6042,-88.0226,Lamar,FO-AL-FAYETTE,APC,1
MIS,30.364868,-89.096932,Harrison,FO-MS-O-SOUTH CENTRAL,MPC,6
MIT,31.4447,-84.1369,Dougherty,FO-GA-SW-BAINBRIDGE,GPC,12
MIW,31.27513,-82.56687,Ware,FO-GA-SE-WAYCROSS,GPC,101
MKN,31.4499722,-81.9231389,MCKINNON,FO-GA-SE-HINESVILLE-BRUNSWICK,GPC,42
MLA,31.11185,-88.8208389,,FO-MS-O-CENTRAL,MPC,153
MLB,33.221094,-99.588064,HASKELL,FO-GA-SE-NATIONAL,SPC,163
MLG,30.64,-87.05527,Santa Rosa,FO-FL-NEXTERA ENERGY,NextEra,6
MLL,33.077383,-83.146602,Baldwin,FO-GA-SW-MACON-EAST,GPC,1
MLN,32.893455,-83.51694,Jones,FO-GA-SW-MACON-EAST,SOGAS,1
MLO,33.095514,-83.249964,Baldwin,FO-GA-SW-MACON-EAST,GPC,1
MLR,33.1759,-85.8912,Clay,FO-AL-ASHLAND,APC,1
MLS,35.616222,-119.849478,Kern,FO-SPC-PLANT SUPPORT 2 BLT HUB,SPC,41
MLT,30.6203,-87.055,Santa Rosa,FO-FL-NEXTERA ENERGY,NextEra,6
MLV,33.103005,-83.250399,Baldwin,FO-GA-SW-MACON-EAST,GPC,1
MLY,32.414837,-88.647283,Lauderdale,FO-MS-O-NORTH,MPC,6
MMB,30.669654,-88.071328,Mobile,FO-AL-SOUTH-MOBILE BLT HUB,APC,6
MMC,30.65306,-88.095,Mobile,FO-AL-SOUTH-MOBILE BLT HUB,APC,6
MMD,30.65306,-88.095,Mobile,FO-AL-SOUTH-MOBILE BLT HUB,APC,6
MMG,30.65306,-88.095,Mobile,FO-AL-SOUTH-MOBILE BLT HUB,APC,6
MMP,31.14798,-85.37274,Houston,FO-AL-DOTHAN EAST,APC,11
MNA,33.048,-84.4827972,MOLENA,FO-GA-SW-MACON-WEST,GPC,1
MNC,32.857615,-84.621322,Meriwether,FO-GA-SW-COLUMBUS,GPC,1
MNI,33.634211,-87.059129,Jefferson,FO-AL-MILLER SP,APC,1
MNR,31.50389,-87.31917,Monroe,FO-AL-SOUTH-MOBILE BLT HUB,APC,1
MNT,34.591625,-85.6404306,,FO-AL-GADSDEN,SOLINC,1
MOC,33.2946,-83.6918,Jasper,FO-GA-SW-MACON-EAST,GPC,1
MOE,33.308694,-84.777472,Coweta,FO-GA-SW-COLUMBUS,GPC,1
MOG,31.94221,-81.12164,Chatham,FO-GA-SE-SAVANNAH 3,GPC,5
MOH,33.70055,-84.17889,Dekalb,FO-GA-NE-CONYERS,GPC,1
MOI,41.415273,-88.307247,Grundy,FO-GA-SE-ILLINOIS-SOUTH,SOGAS,164
MOL,31.215343,-83.79921,Colquitt,FO-GA-SW-BAINBRIDGE,GPC,13
MON,32.33467,-86.28749,Montgomery,FO-AL-MONTGOMERY WEST,APC,1
MOO,33.8196,-83.7476,Walton,FO-GA-NE-ATHENS WEST,GPC,1
MOR,33.96806,-84.38389,Fulton,FO-GA-NW-METRO NORTHWEST,GPC,1
MOS,30.952675,-83.220836,Lowndes,FO-GA-SW-VALDOSTA,GPC,2
MOU,33.005531,-87.600219,Tuscaloosa,FO-AL-DEMOPOLIS,APC,1
MOV,34.6254444,-86.8975556,,FO-AL-BIRMINGHAM NORTH,SOLINC,1
MOW,33.562719,-84.340997,Clayton,FO-GA-NW-CLAYTON/HENRY/SPALDING/BUTTS,GPC,1
MPB,30.366525,-89.096889,Harrison,FO-MS-O-SOUTH CENTRAL,MPC,6
MPG,30.364997,-89.097115,Harrison,FO-MS-O-SOUTH CENTRAL,MPC,6
MPK,33.3437,-86.7919,Shelby,FO-AL-BIRMINGHAM SOUTHWEST,APC,1
MPL,33.7611,-84.4036,Fulton,FO-GA-NW-METRO NORTHWEST,GPC,1
MPS,32.34083,-88.73918,Lauderdale,FO-MS-O-NORTH,MPC,6
MPT,30.410125,-88.538743,Jackson,FO-MS-O-SOUTHEAST,MPC,6
MRB,34.039727,-84.570754,Cobb,FO-GA-NW-COBB,SOGAS,1
MRD,32.680742,-85.913655,Elmore,FO-AL-PHENIX CITY,APC,1
MRG,34.45049,-86.56426,Marshall,FO-AL-BIRMINGHAM NORTH,SOLINC,1
MRH,32.4411667,-83.9253889,MARSHALLVILLE,FO-GA-SW-AMERICUS,GPC,1
MRI,31.17306,-83.78778,Colquitt,FO-GA-SW-BAINBRIDGE,GPC,13
MRL,31.0395,-88.72,Greene,FO-MS-O-CENTRAL,MPC,153
MRO,32.300429,-90.185281,Hinds,FO-MS-O-CENTRAL,MPC,165
MRQ,33.76189,-84.38602,Fulton,FO-GA-NW-METRO NORTHWEST,GPC,1
MRS,33.458953,-87.818392,Tuscaloosa,FO-AL-FAYETTE,APC,1
MRT,33.514061,-82.110461,Columbia,FO-GA-SE-AUGUSTA 1,GPC,1
MRV,31.463463,-87.336561,Monroe,FO-AL-SOUTH-MOBILE BLT HUB,APC,1
MSC,32.389623,-88.673133,Lauderdale,FO-MS-O-NORTH,MPC,6
MSD,33.7445194,-85.3995806,MUSCADINE,FO-AL-GADSDEN,APC,1
MSH,34.71552,-87.65253,Colbert,FO-AL-JASPER,SOLINC,1
MSI,30.4514361,-88.5528528,,FO-MS-O-SOUTHEAST,MPC,6
MSL,31.54972,-89.25472,Jones,FO-MS-O-CENTRAL,MPC,6
MSO,33.518603,-86.812287,Jefferson,FO-APCCORP-APC CORP HQ BLT HUB,APC,1
MSP,32.537363,-107.493608,LUNA,FO-SPC-PLANT SUPPORT 1 BLT HUB,SPC,166
MST,32.390585,-88.672563,Lauderdale,FO-MS-O-NORTH,SCS,6
MSV,32.933954,-83.72385,Bibb,FO-GA-SW-MACON-WEST,SOGAS,1
MSW,30.64,-87.05527,Santa Rosa,FO-FL-NEXTERA ENERGY,NextEra,6
MTB,34.1279722,-86.1176111,MOUNTAINBORO,FO-AL-ALBERTVILLE,APC,1
MTC,32.403167,-86.22905,Montgomery,FO-AL-MONTGOMERY EAST,APC,1
MTE,33.68225,-84.05446,Rockdale,FO-GA-NE-CONYERS,GPC,1
MTG,32.377154,-86.305945,Montgomery,FO-AL-MONTGOMERY EAST,APC,1
MTH,32.506315,-84.93383,Muscogee,FO-GA-SW-COLUMBUS,GPC,1
MTM,33.780169,-84.364171,Fulton,FO-GA-NE-METRO NORTHEAST,GPC,1
MTO,30.371564,-89.09694,Harrison,FO-MS-O-SOUTH CENTRAL,MPC,6
MTW,33.55718,-84.5345,Fulton,FO-GA-NW-COWETA/FAYETTE/SOUTH FULTON,GPC,1
MUN,33.5001,-85.9865,Talladega,FO-AL-ANNISTON,APC,1
MUT,34.4617,-87.2656,Lawrence,FO-AL-JASPER,SOLINC,167
MVL,33.101235,-86.862989,Shelby,FO-AL-BIRMINGHAM SOUTH,APC,1
MVM,32.37167,-88.69722,Lauderdale,FO-MS-O-NORTH,MPC,6
MVN,31.13761,-85.49522,Geneva,FO-AL-DOTHAN WEST,APC,11
MWH,32.811474,-83.560107,BIBB,FO-GA-SW-MACON-EAST,GPC,1
MWT,30.679639,-88.189861,Mobile,FO-AL-SOUTH-MOBILE BLT HUB,APC,6
MWY,32.0921,-85.4892,Bullock,FO-AL-EUFAULA,APC,1
MXE,30.954778,-89.187556,FORREST,FO-MS-O-SOUTHWEST,MPC,6
MYN,32.4280833,-85.3531389,,FO-AL-PHENIX CITY,APC,1
MYS,34.246519,-83.552751,Jackson,FO-GA-NE-GAINESVILLE,GPC,1
MYV,34.76848,-86.4651,Madison,FO-AL-ALBERTVILLE,SOLINC,1
NA1,41.714227,-88.153622,Will,FO-GA-SE-ILLINOIS-SOUTH,SOGAS,29
NAC,34.755338,-83.501329,Rabun,FO-GA-NE-CORNELIA,GPC,1
NAH,31.17375,-83.23675,Berrien,FO-GA-SW-VALDOSTA,GPC,9
NAM,31.09235,-87.53999,Escambia,FO-AL-MOBILE NORTHEAST,APC,6
NAN,32.1161667,-88.0051111,NANAFALIA,FO-AL-MOBILE NORTHEAST,APC,168
NAR,33.492955,-84.283439,Henry,FO-GA-NW-CLAYTON/HENRY/SPALDING/BUTTS,GPC,1
NAT,34.033817,-87.61336,Winston,FO-AL-JASPER,APC,1
NAU,41.803099,-88.351793,KANE,FO-GA-SE-ILLINOIS-NORTH,SOGAS,29
NBF,31.6004667,-84.8547556,NORTH BLUFFTON,FO-GA-SW-BAINBRIDGE,GPC,4
NBL,32.530514,-88.727158,Lauderdale,FO-MS-O-NORTH,MPC,6
NBR,34.1350694,-87.7854611,NORTH BRILLIANT,FO-AL-JASPER,APC,1
NBS,33.9703,-85.4589694,NORTH BORDEN SPRINGS,FO-AL-GADSDEN,APC,1
NCA,30.635964,-89.421458,Hancock,FO-MS-O-SOUTHWEST,MPC,6
NCB,34.065005,-84.520043,Cobb,FO-GA-NW-COBB,GPC,1
NCC,33.238399,-87.562255,Tuscaloosa,FO-AL-FAYETTE,APC,1
NCE,32.976975,-87.118911,Bibb,FO-AL-TUSCALOOSA,APC,1
NCH,31.6184889,-83.5685194,NORTH CHULA,FO-GA-SE-WAYCROSS,GPC,13
NCL,32.85357,-86.65158,Chilton,FO-AL-MONTGOMERY EAST,APC,1
NCV,30.51611,-86.46806,Okaloosa,FO-FL-NEXTERA ENERGY,NextEra,6
NCX,30.9129583,-84.4131028,NORTH CLIMAX,FO-GA-SW-BAINBRIDGE,GPC,30
NDA,34.438317,-84.123009,Dawson,FO-GA-NE-CUMMING,GPC,1
NDB,32.6846306,-83.0947694,NW DUBLIN,FO-GA-SW-PERRY,GPC,169
NDC,34.613877,-86.988436,Morgan,FO-AL-BIRMINGHAM NORTH,SOLINC,1
NDE,32.9259,-83.70199,Bibb,FO-GA-SW-MACON-WEST,GPC,1
NDL,33.83345,-84.33353,DeKalb,FO-GA-NE-METRO NORTHEAST,GPC,1
NDU,32.5583,-82.9005,Laurens,FO-GA-SW-PERRY,GPC,16
NEB,31.3886,-85.9212,Coffee,FO-AL-DOTHAN WEST,APC,11
NEC,41.807489,-88.115489,DuPage,FO-GA-SE-ILLINOIS-SOUTH,SOGAS,29
NED,33.352969,-84.787438,Coweta,FO-GA-NW-COWETA/FAYETTE/SOUTH FULTON,SOGAS,1
NEF,33.329325,-84.9763639,NE FRANKLIN,FO-GA-NW-COWETA/FAYETTE/SOUTH FULTON,GPC,1
NEG,32.8434722,-87.478,NE GREENSBORO,FO-AL-DEMOPOLIS,APC,1
NEH,34.744053,-83.623994,NE HELEN,FO-GA-NE-CORNELIA,GPC,1
NEL,32.2089389,-81.4700278,BRYAN,FO-GA-SE-SAVANNAH 2,GPC,5
NEM,32.892028,-83.594333,Jones,FO-GA-SW-MACON-EAST,GPC,1
NEN,33.3861,-84.7896,Coweta,FO-GA-NW-COWETA/FAYETTE/SOUTH FULTON,GPC,1
NEO,30.4388889,-88.7125,,FO-MS-O-SOUTH,MPC,6
NEP,31.3407,-85.8674,Coffee,FO-AL-DOTHAN WEST,APC,11
NES,33.02635,-85.78664,Tallapoosa,FO-AL-ASHLAND,APC,1
NET,32.246306,-88.828083,LAUDERDALE,FO-MS-O-NORTH CENTRAL,MPC,6
NEV,32.2809111,-81.7641611,NEVILS,FO-GA-SE-SAVANNAH 3,GPC,5
NEW,32.3272,-89.1625,Newton,FO-MS-O-NORTH CENTRAL,MPC,6
NEY,32.9529278,-83.2171111,NE IVEY,FO-GA-SW-MACON-EAST,GPC,1
NFD,34.064246,-84.309785,Fulton,FO-GA-NE-CUMMING,GPC,1
NFK,32.6881222,-87.9025,NORTH FORKLAND,FO-AL-DEMOPOLIS,APC,88
NFL,34.8358,-87.6248,Lauderdale,FO-AL-JASPER,SOLINC,1
NFR,31.1325,-86.2880194,NORTH FLORALA,FO-AL-DOTHAN WEST,APC,19
NGB,41.794145,-88.240948,,FO-GA-SE-ILLINOIS-SOUTH,SOGAS,29
NGE,41.801871,-88.238072,DUPAGE,FO-GA-SE-ILLINOIS-SOUTH,SOGAS,29
NGF,34.75741,-83.49792,Rabun,FO-GA-NE-CORNELIA,GPC,1
NGH,34.70761,-83.36651,Habersham,FO-GA-NE-CORNELIA,GPC,1
NGL,34.75741,-83.49792,Rabun,FO-GA-NE-CORNELIA,GPC,1
NGN,34.291292,-83.825796,Hall,FO-GA-NE-GAINESVILLE,GPC,1
NGP,30.413618,-89.095409,Harrison,FO-MS-O-SOUTH CENTRAL,MPC,6
NGS,41.417853,-88.301546,,FO-GA-SE-ILLINOIS-SOUTH,SOGAS,164
NGT,34.441333,-86.307944,Marshall,FO-AL-ALBERTVILLE,SOLINC,1
NGV,33.540836,-84.387801,Clayton,FO-GA-NW-CLAYTON/HENRY/SPALDING/BUTTS,SOGAS,1
NHP,34.5317472,-86.4127556,,FO-AL-ALBERTVILLE,SOLINC,1
NHT,31.4272,-89.3168889,,FO-MS-O-CENTRAL,MPC,6
NHV,41.807293,-88.197845,DuPage,FO-GA-SE-ILLINOIS-SOUTH,SOGAS,29
NIC,31.514474,-82.596213,Bacon,FO-GA-SE-WAYCROSS,GPC,101
NIH,34.119175,-83.4329167,NICHOLSON,FO-GA-NE-GAINESVILLE,GPC,1
NIV,34.369,-88.040833,Franklin,FO-AL-JASPER,APC,1
NIX,32.8643,-86.09155,NIXBURG,FO-AL-ASHLAND,APC,1
NJL,33.4383361,-83.9021361,NORTH JACKSON LAKE,FO-GA-NE-CONYERS,GPC,1
NKL,30.477422,-89.422297,Hancock,FO-MS-O-SOUTHWEST,MPC,6
NLV,33.1046306,-82.4233,NORTH LOUISVILLE,FO-GA-SE-AUGUSTA 2,GPC,45
NMB,32.528619,-86.389619,Elmore,FO-AL-MONTGOMERY EAST,APC,1
NMD,32.4125667,-88.701925,NORTH MERIDIAN,FO-MS-O-NORTH,MPC,6
NME,34.4252806,-85.2345806,NW ARMUCHEE,FO-GA-NW-FLOYD & NORTH,GPC,1
NMS,33.494839,-82.608908,Warren,FO-GA-SE-AUGUSTA 1,GPC,1
NNL,33.9336389,-82.7664889,NORTH TIGNALL,FO-GA-NE-ATHENS EAST,GPC,75
NOA,33.800663,-84.393795,Fulton,FO-GA-NW-METRO NORTHWEST,GPC,1
NOH,33.354683,-84.791611,Coweta,FO-GA-NW-COWETA/FAYETTE/SOUTH FULTON,GPC,1
NOK,34.6728889,-84.6779694,NORTH OAKMAN,FO-GA-NW-BARTOW/CHEROKEE & NORTH,GPC,1
NOP,31.2992,-86.2086,Covington,FO-AL-DOTHAN WEST,APC,19
NOT,33.896,-84.6812,Cobb,FO-GA-NW-COBB,GPC,1
NOV,33.71105,-86.3813,NE ODENVILLE,FO-AL-BIRMINGHAM EAST,APC,1
NOW,34.124819,-84.5133,Cherokee,FO-GA-NW-BARTOW/CHEROKEE & NORTH,GPC,1
NPH,41.807947,-88.19789,DuPage,FO-GA-SE-ILLINOIS-SOUTH,SOGAS,29
NPM,32.9251389,-84.9381111,NW PINE MOUNTAIN,FO-GA-SW-COLUMBUS,GPC,1
NPN,37.083017,-76.463109,Newport News,FO-GA-SE-NATIONAL,SOGAS,170
NPS,32.469396,-83.73753,Houston,FO-GA-SW-PERRY,GPC,1
NRA,32.1872778,-84.69825,NORTH RICHLAND,FO-GA-SW-AMERICUS,GPC,1
NRD,41.80739,-88.194862,DuPage,FO-GA-SE-ILLINOIS-SOUTH,SOGAS,29
NRF,33.781591,-86.422963,St. Clair,FO-AL-BIRMINGHAM EAST,APC,1
NRJ,33.3777778,-87.1196139,NORTH JOHNS,FO-AL-BIRMINGHAM NORTHWEST,APC,1
NRK,33.2154389,-85.4106611,NORTH ROANOKE,FO-AL-ASHLAND,APC,1
NRT,32.5544722,-82.4970833,NORTH NORRISTOWN,FO-GA-SE-BAXLEY,GPC,16
NRW,33.502186,-82.718828,Warren,FO-GA-SE-AUGUSTA 1,GPC,1
NSA,33.041902,-85.7703,Tallapoosa,FO-AL-ASHLAND,APC,1
NSB,33.296037,-86.814212,Shelby,FO-AL-BIRMINGHAM SOUTHWEST,APC,1
NSC,30.757838,-88.216439,Mobile,FO-AL-MOBILE NORTHWEST,APC,6
NSD,33.921344,-84.308449,DeKalb,FO-GA-NE-METRO NORTHEAST,GPC,1
NSH,33.9211,-84.3083,Dekalb,FO-GA-NE-METRO NORTHEAST,GPC,1
NST,36.720617,-120.42146,Fresno,FO-SPC-PLANT SUPPORT 2 BLT HUB,SPC,171
NSV,42.306838,-88.146226,LAKE,FO-GA-SE-ILLINOIS-NORTH,SOGAS,141
NTA,33.96647,-83.39844,Clarke,FO-GA-NE-ATHENS EAST,GPC,1
NTC,33.588034,-85.102431,Carroll,FO-GA-NW-CARROLL/HEARD/DOUGLAS,GPC,1
NTG,32.573044,-85.694261,NOTASULGA,FO-AL-PHENIX CITY,APC,1
NTH,33.1804972,-85.0096556,NORTH HILLCREST,FO-GA-SW-COLUMBUS,GPC,1
NTL,31.3444889,-81.7226611,NW THALMANN,FO-GA-SE-HINESVILLE-BRUNSWICK,GPC,33
NTM,33.354683,-84.791611,Coweta,FO-GA-NW-COWETA/FAYETTE/SOUTH FULTON,GPC,1
NTN,33.7344528,-85.877,NW ANNISTON,FO-AL-GADSDEN,APC,1
NTP,33.244877,-87.595231,Tuscaloosa,FO-AL-FAYETTE,APC,1
NTR,34.249803,-85.160362,Floyd,FO-GA-NW-FLOYD & NORTH,GPC,1
NTU,33.3241,-87.5213,Tuscaloosa,FO-AL-TUSCALOOSA,APC,1
NTW,31.6030806,-81.5916111,NW TOWNSEND,FO-GA-SE-HINESVILLE-BRUNSWICK,GPC,172
NUG,33.777763,-84.416919,Fulton,FO-GA-NW-METRO NORTHWEST,GPC,1
NUT,34.073339,-86.308,Etowah,FO-AL-ALBERTVILLE,APC,1
NVC,33.45954,-86.3558,Saint Clair,FO-AL-ASHLAND,APC,1
NVG,40.51775,-74.856289,Hunterdon,FO*-SJI Contacts,SOGAS,117
NVO,34.006431,-87.424252,Winston,FO-AL-JASPER,APC,1
NWA,34.090005,-84.346441,Fulton,FO-GA-NE-CUMMING,GPC,1
NWB,30.480833,-88.935556,,FO-MS-O-SOUTHEAST,MPC,6
NWD,31.2685,-85.4396,Houston,FO-AL-DOTHAN WEST,APC,11
NWE,30.73805,-88.594311,,FO-MS-O-SOUTH,MPC,6
NWF,32.682469,-85.012972,Harris,FO-GA-SW-COLUMBUS,GPC,1
NWG,30.464611,-88.410061,,FO-MS-O-SOUTHEAST,MPC,6
NWH,33.917753,-86.335303,Saint Clair,FO-AL-ALBERTVILLE,APC,1
NWM,32.888619,-83.757416,Bibb,FO-GA-SW-MACON-WEST,GPC,1
NWN,33.355703,-84.791308,Coweta,FO-GA-NW-COWETA/FAYETTE/SOUTH FULTON,GPC,1
NWP,32.49895,-85.04908,Russell,FO-AL-PHENIX CITY,APC,1
NWR,32.5958194,-87.5693306,NEWBERN,FO-AL-DEMOPOLIS,APC,122
NWS,33.027108,-86.777108,Chilton,FO-AL-BIRMINGHAM SOUTH,APC,1
NWT,34.90295,-85.5129,Dade,FO-GA-NW-FLOYD & NORTH,GPC,1
NWW,31.1575,-87.1544444,NW BREWTON,FO-AL-MOBILE NORTHEAST,APC,6
NWY,32.4549444,-83.7414444,,FO-GA-SW-PERRY,GPC,1
NYC,40.70774,-74.0117,New York,FO-GA-SE-NATIONAL,APC,173
OAG,33.211904,-86.312344,Talladega,FO-AL-ASHLAND,APC,1
OAM,34.57222,-84.70666,Gordon,FO-GA-NW-BARTOW/CHEROKEE & NORTH,GPC,1
OCH,31.467604,-85.651968,Dale,FO-AL-DOTHAN WEST,APC,11
OCI,31.55306,-83.20722,Irwin,FO-GA-SE-WAYCROSS,GPC,174
OCT,32.223578,-87.783316,Marengo,FO-AL-DEMOPOLIS,APC,62
ODH,33.600019,-84.379914,Clayton,FO-GA-NW-CLAYTON/HENRY/SPALDING/BUTTS,GPC,1
ODM,31.68604,-82.10039,Wayne,FO-GA-SE-HINESVILLE-BRUNSWICK,GPC,175
ODS,33.55107,-86.7228,Jefferson,FO-AL-BIRMINGHAM NORTHEAST,APC,1
OE1,39.018108,-77.462489,Loudoun,FO-GA-SE-NATIONAL,GPC,125
OFF,31.40552,-82.11846,Pierce,FO-GA-SE-HINESVILLE-BRUNSWICK,GPC,42
OGE,32.2662,-84.1068,Macon,FO-GA-SW-AMERICUS,GPC,95
OGL,33.84405,-84.24248,DeKalb,FO-GA-NE-CONYERS,GPC,1
OHA,33.786856,-86.035,Calhoun,FO-AL-ALBERTVILLE,APC,1
OHF,33.620722,-84.385927,Clayton,FO-GA-NW-CLAYTON/HENRY/SPALDING/BUTTS,GPC,1
OHL,30.986972,-84.059167,Thomas,FO-GA-SW-BAINBRIDGE,GPC,61
OKB,32.7908083,-85.4690944,OAK BOWERY,FO-AL-PHENIX CITY,APC,1
OKF,31.7363361,-83.944425,OAKFIELD,FO-GA-SW-AMERICUS,GPC,176
OKG,33.452333,-87.163028,Jefferson,FO-AL-BIRMINGHAM NORTHWEST,APC,1
OKH,31.923375,-87.0824972,OAK HILL,FO-AL-MONTGOMERY WEST,APC,177
OKM,33.7130389,-87.39295,,FO-AL-MILLER SP,APC,1
OKP,32.4021111,-82.3591389,OAK PARK,FO-GA-SE-BAXLEY,GPC,178
OKT,34.5942389,-85.29105,,FO-GA-NW-FLOYD & NORTH,GPC,1
OLD,33.34668,-83.160861,Putnam,FO-GA-SW-MACON-EAST,GPC,1
OLI,31.263163,-88.009061,Washington,FO-AL-MOBILE BARRY,APC,6
OLV,34.812856,-87.26316,Lauderdale,FO-AL-JASPER,SOLINC,1
OMG,31.3292,-83.6186,Colquitt,FO-GA-SW-VALDOSTA,GPC,13
OMH,33.365192,-86.737554,Shelby,FO-AL-BIRMINGHAM NORTHEAST,APC,1
ONC,33.96972,-86.45139,Blount,FO-AL-ALBERTVILLE,APC,1
ONE,33.96565,-86.439225,,FO-AL-ALBERTVILLE,APC,1
ONT,33.95,-86.46806,Blount,FO-AL-ALBERTVILLE,APC,1
OPC,33.84405,-84.24248,DeKalb,FO-GA-NE-CONYERS,GPC,1
OPE,32.6666,-85.352804,Lee,FO-AL-PHENIX CITY,APC,1
OPS,30.511096,-89.103482,Harrison,FO-MS-O-SOUTHEAST,MPC,6
ORB,30.2829,-87.5845,Baldwin,FO-AL-MOBILE SOUTHEAST,APC,6
ORI,31.9585,-86.0065,Pike,FO-AL-EUFAULA,APC,1
ORN,33.8251694,-86.9231694,CORNER,FO-AL-BIRMINGHAM NORTHWEST,APC,1
ORR,32.312597,-87.240405,Dallas,FO-AL-DEMOPOLIS,APC,1
ORT,32.526,-81.9302778,PORTAL,FO-GA-SE-SAVANNAH 2,GPC,5
OSB,32.670472,-87.130972,Perry,FO-AL-DEMOPOLIS,APC,179
OSG,30.41472,-88.82861,Jackson,FO-MS-O-SOUTH,MPC,6
OSP,30.450263,-88.817445,Jackson,FO-MS-O-SOUTH,MPC,6
OSR,32.315,-86.4505,Montgomery,FO-AL-MONTGOMERY WEST,APC,1
OSW,32.334364,-85.024514,Russell,FO-AL-PHENIX CITY,APC,1
OTT,41.35763,-88.829455,LaSalle,FO-SOGAS-IL REGIONS BLT HUB,SOGAS,180
OUT,32.781033,-85.934742,Tallapoosa,FO-AL-ASHLAND,APC,1
OVT,31.499592,-89.018813,,FO-MS-O-CENTRAL,MPC,153
OW1,33.463264,-111.924352,Maricopa,FO-GA-SE-NATIONAL,APC,181
OXF,33.613199,-85.79774,Calhoun,FO-AL-ANNISTON,APC,1
OZA,31.456475,-85.64509,Dale,FO-AL-DOTHAN WEST,APC,11
OZK,31.4639,-85.6362,Dale,FO-AL-DOTHAN WEST,APC,11
OZR,31.456892,-85.645531,Dale,FO-AL-DOTHAN WEST,APC,11
PAC,33.839992,-84.428819,Fulton,FO-GA-NW-METRO NORTHWEST,GPC,1
PAE,33.4951389,-87.9686056,PICKENS,FO-AL-FAYETTE,APC,1
PAL,33.5329,-84.6173,Fulton,FO-GA-NW-COWETA/FAYETTE/SOUTH FULTON,GPC,1
PAM,40.508229,-74.267742,Middlesex,FO*-SJI Contacts,SOGAS,182
PAN,30.1736,-85.6414,Bay,FO-FL-FPL SERVICE DESK BLT HUB 1,NextEra,135
PAO,33.51167,-86.80639,Jefferson,FO-AL-BIRMINGHAM DOWNTOWN SOUTH,APC,1
PAP,31.873181,-86.977306,Wilcox,FO-AL-MONTGOMERY WEST,APC,177
PAR,33.742528,-87.270222,,FO-AL-MILLER SP,APC,1
PAS,30.3775,-88.5386,Jackson,FO-MS-O-SOUTHEAST,MPC,6
PAT,33.7178,-84.255,DeKalb,FO-GA-NE-METRO SOUTHEAST,GPC,1
PAV,30.9600333,-83.7167611,PAVO,FO-GA-SW-BAINBRIDGE,GPC,37
PAW,32.569276,-84.257728,Taylor,FO-GA-SW-MACON-WEST,SPC,57
PAX,30.97833,-86.31639,Walton,FO-AL-DOTHAN WEST,SOLINC,19
PBB,33.138405,-87.462743,Tuscaloosa,FO-AL-TUSCALOOSA,APC,1
PBD,33.4603,-87.3592,Tuscaloosa,FO-AL-FAYETTE,APC,1
PBF,32.666818,-85.082159,Harris,FO-GA-SW-COLUMBUS,GPC,1
PBR,33.19213,-83.29473,Putnam,FO-GA-SW-MACON-EAST,GPC,1
PCA,32.64932,-86.73844,Autauga,FO-AL-MONTGOMERY WEST,APC,1
PCB,30.4125,-87.24277,Escambia,FO-FL-NEXTERA ENERGY,NextEra,6
PCC,33.591399,-86.246747,St. Clair,FO-AL-ALBERTVILLE,APC,1
PCD,30.196225,-85.832587,Bay,FO-FL-NEXTERA ENERGY,NextEra,135
PCF,33.176158,-86.770418,Shelby,FO-AL-BIRMINGHAM SOUTH,APC,1
PCG,30.173666,-85.640337,Bay,FO-FL-NEXTERA ENERGY,NextEra,135
PCH,33.39613,-86.802042,Jefferson,FO-AL-BIRMINGHAM SOUTHWEST,APC,1
PCI,30.330175,-89.240981,Harrison,FO-MS-O-SOUTH CENTRAL,MPC,6
PCK,30.76389,-88.06028,Mobile,FO-AL-MOBILE SOUTHEAST,APC,6
PCN,30.31732,-89.24355,Harrison,FO-MS-O-SOUTH CENTRAL,MPC,6
PCQ,33.28382,-86.81753,Shelby,FO-AL-BIRMINGHAM SOUTHWEST,APC,1
PCR,30.3269,-89.251,Harrison,FO-MS-O-SOUTH CENTRAL,MPC,6
PCS,30.196161,-85.832641,Bay,FO-FL-NEXTERA ENERGY,NextEra,135
PCU,33.626765,-84.389741,Clayton,FO-GA-NW-CLAYTON/HENRY/SPALDING/BUTTS,GPC,1
PCW,30.173509,-85.638637,Bay,FO-FL-NEXTERA ENERGY,NextEra,135
PCY,30.51464,-89.67017,Pearl River,FO-MS-O-SOUTHWEST,MPC,6
PDB,34.04353,-83.397603,Jackson,FO-GA-NE-GAINESVILLE,SPC,1
PDD,30.997264,-87.6164,Baldwin,FO-AL-MOBILE SOUTHEAST,APC,6
PDK,33.88307,-84.3027,DeKalb,FO-GA-NE-METRO NORTHEAST,SCS,1
PDN,30.529797,-88.554772,Jackson,FO-MS-O-SOUTH CENTRAL,MPC,6
PDT,32.1366,-81.6105,Bryan,FO-GA-SE-SAVANNAH 3,GPC,5
PDW,33.175006,-86.770459,Shelby,FO-AL-BIRMINGHAM SOUTH,APC,1
PEA,31.2891,-82.8428,Atkinson,FO-GA-SE-WAYCROSS,GPC,138
PEC,33.400223,-84.58021,Fayette,FO-GA-NW-COWETA/FAYETTE/SOUTH FULTON,GPC,1
PED,31.50911,-87.46959,Monroe,FO-AL-MOBILE NORTHEAST,APC,1
PEE,33.442696,-84.592167,Fayette,FO-GA-NW-COWETA/FAYETTE/SOUTH FULTON,GPC,1
PEL,33.603606,-86.28471,St. Clair,FO-AL-ALBERTVILLE,APC,1
PEM,32.236809,-81.622686,Bulloch,FO-GA-SE-SAVANNAH 3,GPC,5
PEO,31.8886,-85.70746,Bullock,FO-AL-EUFAULA,APC,183
PER,32.45576,-83.73245,Houston,FO-GA-SW-PERRY,GPC,1
PET,31.32947,-89.26822,Forrest,FO-MS-O-CENTRAL,MPC,6
PEY,32.3772,-83.7143,Houston,FO-GA-SW-PERRY,GPC,1
PFA,35.910747,-79.852439,RANDOLPH,FO-POWER SECURE LOCATIONS,SCS,184
PFB,30.530873,-87.309537,Escambia,FO-FL-NEXTERA ENERGY,NextEra,6
PFD,30.531379,-87.31122,Escambia,FO-FL-NEXTERA ENERGY,NextEra,6
PFG,30.531243,-87.309353,Escambia,FO-FL-NEXTERA ENERGY,NextEra,6
PFH,33.513604,-86.818326,Jefferson,FO-AL-BIRMINGHAM DOWNTOWN NORTH,APC,1
PFK,32.6105806,-85.1074722,PLANT FRANKLIN,FO-GA-SW-COLUMBUS,APC,1
PFM,30.532096,-87.311659,Escambia,FO-FL-NEXTERA ENERGY,NextEra,6
PFS,30.530492,-87.309422,Escambia,FO-FL-NEXTERA ENERGY,NextEra,6
PFW,30.531464,-87.310554,Escambia,FO-FL-NEXTERA ENERGY,NextEra,6
PGC,32.601413,-87.779592,Greene,FO-AL-DEMOPOLIS,APC,88
PGD,34.013076,-85.978725,Etowah,FO-AL-GADSDEN,APC,1
PGS,33.246094,-86.459468,Shelby,FO-AL-BIRMINGHAM EAST,APC,1
PGW,30.413271,-87.246407,Escambia,FO-FL-FPL SERVICE DESK BLT HUB 1,NextEra,6
PHC,32.47471,-85.00087,Russell,FO-AL-PHENIX CITY,APC,1
PHD,33.78417,-86.05139,Calhoun,FO-AL-ALBERTVILLE,APC,1
PHF,31.93024,-82.34585,Appling,FO-GA-SE-BAXLEY,GPC,16
PHI,34.318694,-87.699144,Franklin,FO-AL-JASPER,APC,1
PHQ,32.499657,-85.059569,Russell,FO-AL-PHENIX CITY,APC,1
PHT,32.0559167,-88.899,,FO-MS-O-NORTH CENTRAL,MPC,6
PHX,33.437118,-112.233292,Maricopa,FO-GA-SE-NATIONAL,SNC,185
PIC,30.527965,-89.686717,Pearl River,FO-MS-O-SOUTHWEST,MPC,6
PIE,33.905095,-85.61909,Calhoun,FO-AL-GADSDEN,APC,1
PIH,32.1803,-83.7547,Dooly,FO-GA-SW-AMERICUS,GPC,1
PIK,32.32048,-86.14303,Montgomery,FO-AL-MONTGOMERY EAST,APC,1
PIL,32.62636,-86.49179,Autauga,FO-AL-MONTGOMERY EAST,APC,1
PIN,33.644655,-86.732244,Jefferson,FO-AL-BIRMINGHAM NORTH,APC,1
PIR,30.41295,-87.24395,Escambia,FO-FL-NEXTERA ENERGY,NextEra,6
PIV,31.4277,-88.7579,Greene,FO-MS-O-CENTRAL,MPC,186
PJD,32.6167,-86.2608,Elmore,FO-AL-MONTGOMERY EAST,APC,1
PLB,31.006714,-88.009629,Mobile,FO-AL-SOUTH-MOBILE BLT HUB,APC,6
PLC,33.583203,-86.277346,Saint Clair,FO-AL-ALBERTVILLE,APC,1
PLD,32.963329,-86.519099,Chilton,FO-AL-BIRMINGHAM SOUTH,APC,1
PLF,31.233206,-85.109249,Houston,FO-AL-DOTHAN EAST,APC,11
PLG,33.645483,-87.198293,Walker,FO-AL-MILLER SP,APC,1
PLH,31.119626,-84.143799,Mitchell,FO-GA-SW-BAINBRIDGE,GPC,61
PLL,31.055925,-87.1963139,POLLARD,FO-AL-MOBILE NORTHEAST,APC,6
PLM,33.62846,-87.05334,Jefferson,FO-AL-MILLER SP,APC,1
PLN,32.039405,-84.411919,Sumter,FO-GA-SW-AMERICUS,GPC,187
PLO,34.322488,-84.636086,Cherokee,FO-GA-NW-BARTOW/CHEROKEE & NORTH,GPC,1
PLR,32.9000694,-87.3756139,PAYNE LAKE RD,FO-AL-TUSCALOOSA,APC,1
PLS,33.320999,-83.842936,Butts,FO-GA-NE-CONYERS,GPC,1
PLT,32.6483,-86.9448306,PLANTERSVILLE,FO-AL-MONTGOMERY WEST,APC,1
PMC,33.82467,-84.47475,Cobb,FO-GA-NW-METRO NORTHWEST,GPC,1
PMD,32.8047,-86.4464,Chilton,FO-AL-MONTGOMERY EAST,APC,1
PMS,33.821478,-84.478812,Cobb,FO-GA-NW-METRO NORTHWEST,GPC,1
PNC,30.478567,-87.197781,Escambia,FO-FL-NEXTERA ENERGY,SCS,6
PNH,32.49885,-84.994011,Muscogee,FO-GA-SW-COLUMBUS,GPC,1
PNN,32.213622,-88.051339,Choctaw,FO-AL-MOBILE NORTHWEST,APC,168
PNS,30.41287,-87.24168,Escambia,FO-FL-FPL SERVICE DESK BLT HUB 1,NextEra,6
PNV,32.1086167,-83.4975472,PINEVIEW,FO-GA-SW-PERRY,GPC,1
PNX,32.425634,-85.020221,Russell,FO-AL-PHENIX CITY,APC,1
POC,30.41333,-87.24277,Escambia,FO-FL-FPL SERVICE DESK BLT HUB 1,NextEra,6
POD,32.516561,-84.996838,Muscogee,FO-GA-SW-COLUMBUS,GPC,1
POL,30.8504389,-89.5007194,,FO-MS-O-SOUTHWEST,MPC,6
PON,33.780169,-84.364171,Fulton,FO-GA-NE-METRO NORTHEAST,GPC,1
POO,32.087166,-81.23834,Chatham,FO-GA-SE-SAVANNAH 1,GPC,5
POP,30.842183,-89.536206,Pearl River,FO-MS-O-SOUTHWEST,MPC,6
POT,40.858735,-88.545351,Livingston,FO-SOGAS-IL REGIONS BLT HUB,SOGAS,188
POW,33.8561,-84.6764,Cobb,FO-GA-NW-COBB,GPC,1
PPC,34.8025,-87.0902,Limestone,FO-AL-BIRMINGHAM NORTH,SOLINC,1
PPD,30.41833,-87.21111,Escambia,FO-FL-FPL SERVICE DESK BLT HUB 1,NextEra,6
PPP,36.77513,-76.29019,Chesapeake,FO-GA-SE-NATIONAL,SOGAS,78
PRA,32.461032,-86.428357,Autauga,FO-AL-MONTGOMERY WEST,APC,1
PRC,32.65702,-88.75455,Kemper,FO-MS-O-NORTH,MPC,6
PRE,32.0635,-81.0488,Chatham,FO-GA-SE-SAVANNAH 1,GPC,5
PRJ,32.92667,-83.69917,Bibb,FO-GA-SW-MACON-WEST,GPC,1
PRM,33.37721,-89.212273,Choctaw,FO-MS-O-NORTH,MPC,189
PRO,34.121794,-84.209175,Forsyth,FO-GA-NE-CUMMING,GPC,1
PRQ,32.442861,-86.435924,Autauga,FO-AL-MONTGOMERY WEST,APC,1
PRT,32.53032,-86.44674,Autauga,FO-AL-MONTGOMERY WEST,APC,1
PRV,32.479393,-86.468925,Autauga,FO-AL-MONTGOMERY WEST,APC,1
PSC,30.527965,-89.686717,Pearl River,FO-MS-O-SOUTHWEST,MPC,6
PSD,33.940561,-87.107978,Walker,FO-AL-MILLER SP,APC,1
PSG,30.375681,-88.540836,Jackson,FO-MS-O-SOUTHEAST,MPC,6
PSH,33.035786,-83.867354,Monroe,FO-GA-SW-MACON-EAST,GPC,1
PSK,45.039007,-68.589039,Penobscot,FO-SPC-PLANT SUPPORT 1 BLT HUB,SPC,190
PSL,27.3325,-80.409873,St. Lucie,FO*-NEE-FCG Contacts,SOGAS,191
PSM,43.081379,-70.803629,Rockingham,FO*-SJI Contacts,SOGAS,192
PSR,33.0645,-83.800833,Monroe,FO-GA-SW-MACON-EAST,GPC,1
PSS,42.313908,-89.359279,Winnebago,FO-SOGAS-IL REGIONS BLT HUB,SOGAS,193
PSV,30.84743,-89.47028,Pearl River,FO-MS-O-SOUTHWEST,MPC,6
PSW,32.293026,-88.744847,Lauderdale,FO-MS-O-NORTH,MPC,6
PTA,31.354325,-89.217211,,FO-MS-O-CENTRAL,MPC,6
PTC,30.498828,-87.923394,Baldwin,FO-AL-MOBILE SOUTHEAST,APC,6
PTD,32.53444,-85.88917,Elmore,FO-AL-PHENIX CITY,APC,1
PTF,34.72863,-83.377894,Habersham,FO-GA-NE-CORNELIA,GPC,1
PTK,34.6751083,-86.3322889,,FO-AL-ALBERTVILLE,SOLINC,1
PTL,30.530716,-88.551714,Jackson,FO-MS-O-SOUTH CENTRAL,MPC,6
PTM,33.831665,-84.479327,Cobb,FO-GA-NW-METRO NORTHWEST,GPC,1
PTR,33.896473,-84.296057,DeKalb,FO-GA-NE-METRO NORTHEAST,SOGAS,1
PTT,32.14322,-85.1697,Russell,FO-AL-EUFAULA,APC,1
PTW,32.150604,-81.154988,Chatham,FO-GA-SE-SAVANNAH 1,GPC,5
PUR,31.14194,-89.41139,Lamar,FO-MS-O-CENTRAL,MPC,6
PUS,32.192,-88.3710306,PUSHMATAHA,FO-AL-MOBILE NORTHWEST,APC,6
PUV,31.14719,-89.36559,Lamar,FO-MS-O-CENTRAL,MPC,6
PVL,33.2256861,-88.2677861,PICKENSVILLE,FO-AL-FAYETTE,APC,1
PVM,30.174152,-85.638792,,FO-FL-NEXTERA ENERGY,NextEra,135
PVN,33.2975,-86.7726,Shelby,FO-AL-BIRMINGHAM EAST,APC,1
PWC,30.38699,-89.09322,Harrison,FO-MS-O-SOUTH CENTRAL,MPC,6
PWD,34.132535,-85.793631,Cherokee,FO-AL-GADSDEN,APC,1
PWR,32.589327,-83.589097,Houston,FO-GA-SW-PERRY,GPC,1
PWS,30.440849,-89.027941,Harrison,FO-MS-O-SOUTHEAST,MPC,6
PWT,30.439813,-89.026927,Harrison,FO-MS-O-SOUTHEAST,MPC,6
PXT,40.471149,-88.133499,Ford,FO-SOGAS-IL REGIONS BLT HUB,SOGAS,194
PYD,32.5564,-85.8959,Elmore,FO-AL-PHENIX CITY,APC,1
Q11,31.578414,-89.230278,,FO-MS-O-CENTRAL,MPC,6
Q26,30.83822,-89.52772,Pearl River,FO-MS-O-SOUTHWEST,MPC,6
Q28,31.30962,-89.33154,Forrest,FO-MS-O-CENTRAL,MPC,6
Q29,30.371843,-89.096246,Harrison,FO-MS-O-SOUTH CENTRAL,MPC,6
Q3A,30.33245,-85.751116,Bay,FO-FL-NEXTERA ENERGY,NextEra,135
Q40,32.39978,-88.72082,Lauderdale,FO-MS-O-NORTH,MPC,6
Q47,32.362696,-88.72522,Lauderdale,FO-MS-O-NORTH,MPC,6
QAA,30.669684,-84.388689,Jackson,FO-FL-NEXTERA ENERGY,NextEra,30
QAD,30.78542,-89.90664,Washington,FO-MS-O-SOUTHWEST,MPC,195
QAI,30.6143,-87.200599,Santa Rosa,FO-FL-NEXTERA ENERGY,NextEra,6
QAL,34.233049,-85.234905,Floyd,FO-GA-NW-FLOYD & NORTH,GPC,1
QAN,30.926311,-89.772165,Washington,FO-MS-O-SOUTHWEST,SCS,196
QAP,36.393133,-114.964864,Clark,FO-SPC-PLANT SUPPORT 2 BLT HUB,SPC,25
QAS,32.36048,-88.69807,Lauderdale,FO-MS-O-NORTH,MPC,6
QAT,30.709896,-86.597435,Okaloosa,FO-FL-NEXTERA ENERGY,NextEra,6
QB1,30.43703,-87.3099,Escambia,FO-FL-NEXTERA ENERGY,NextEra,6
QB8,30.465284,-87.25752,Escambia,FO-FL-NEXTERA ENERGY,NextEra,6
QB9,30.465321,-87.258323,Escambia,FO-FL-NEXTERA ENERGY,NextEra,6
QBA,30.339765,-89.427441,Hancock,FO-MS-O-SOUTHWEST,MPC,6
